rosbagTimestamp,header,seq,stamp,secs,nsecs,frame_id,MessageID,GPSSecs,GPSMicroSecs,Latitude,Longitude,Altitude,GeoSep,NavMode,NumOfSats,HDOP,AgeOfDiff,LockStatus,BaseStationID
1722883527569246427,,1,,1722883527,558242797,"""SparkFun GPS GGA""","""GGA""",1722883527.0,600000.0,40.862308051666666,-77.836540795,333.459,-34.454,2,12,0.48,0.0,2,"""PSU_TestTrack"""
1722883527660430926,,2,,1722883527,659457206,"""SparkFun GPS GGA""","""GGA""",1722883527.0,700000.0,40.86230336333333,-77.83653104833333,333.467,-34.454,2,12,0.48,0.0,2,"""PSU_TestTrack"""
1722883527751826073,,3,,1722883527,751105308,"""SparkFun GPS GGA""","""GGA""",1722883527.0,800000.0,40.86229868833333,-77.83652119999999,333.481,-34.454,2,12,0.48,0.0,2,"""PSU_TestTrack"""
1722883527860815386,,4,,1722883527,859830856,"""SparkFun GPS GGA""","""GGA""",1722883527.0,900000.0,40.86229405,-77.83651122166667,333.49,-34.454,2,12,0.48,0.0,2,"""PSU_TestTrack"""
1722883527969073199,,5,,1722883527,968453407,"""SparkFun GPS GGA""","""GGA""",1722883528.0,0.0,40.86228940833333,-77.83650112833334,333.506,-34.454,2,12,0.48,0.0,2,"""PSU_TestTrack"""
1722883528065852451,,6,,1722883528,65353631,"""SparkFun GPS GGA""","""GGA""",1722883528.0,100000.0,40.86228476833333,-77.83649096333333,333.524,-34.454,2,12,0.48,0.0,2,"""PSU_TestTrack"""
1722883528168337533,,7,,1722883528,167407989,"""SparkFun GPS GGA""","""GGA""",1722883528.0,200000.0,40.86228012833333,-77.836480755,333.536,-34.454,2,12,0.48,0.0,2,"""PSU_TestTrack"""
1722883528267001630,,8,,1722883528,266476631,"""SparkFun GPS GGA""","""GGA""",1722883528.0,300000.0,40.862275545,-77.83647043,333.545,-34.454,2,12,0.48,0.0,2,"""PSU_TestTrack"""
1722883528382562672,,9,,1722883528,381874322,"""SparkFun GPS GGA""","""GGA""",1722883528.0,400000.0,40.862269098333336,-77.836459645,336.183,-34.454,2,12,0.53,0.4,2,"""PSU_TestTrack"""
1722883528467318610,,10,,1722883528,466217517,"""SparkFun GPS GGA""","""GGA""",1722883528.0,500000.0,40.862263868333336,-77.836448505,336.382,-34.454,2,12,0.53,0.5,2,"""PSU_TestTrack"""
1722883528565743970,,11,,1722883528,565251111,"""SparkFun GPS GGA""","""GGA""",1722883528.0,600000.0,40.862259115,-77.83643757333333,336.436,-34.454,2,12,0.53,0.6,2,"""PSU_TestTrack"""
1722883528659868929,,12,,1722883528,658478736,"""SparkFun GPS GGA""","""GGA""",1722883528.0,700000.0,40.86225454666667,-77.83642671833333,336.441,-34.454,2,12,0.53,0.7,2,"""PSU_TestTrack"""
1722883528764902455,,13,,1722883528,764427661,"""SparkFun GPS GGA""","""GGA""",1722883528.0,800000.0,40.862250061666664,-77.836415725,336.43399999999997,-34.454,2,12,0.53,0.8,2,"""PSU_TestTrack"""
1722883528865884758,,14,,1722883528,865497350,"""SparkFun GPS GGA""","""GGA""",1722883528.0,900000.0,40.862245701666666,-77.836404755,336.399,-34.454,2,12,0.53,0.9,2,"""PSU_TestTrack"""
1722883528974025987,,15,,1722883528,972987890,"""SparkFun GPS GGA""","""GGA""",1722883529.0,0.0,40.86224137666667,-77.83639385333333,336.37,-34.454,2,12,0.53,1.0,2,"""PSU_TestTrack"""
1722883529075549361,,16,,1722883529,74240446,"""SparkFun GPS GGA""","""GGA""",1722883529.0,100000.0,40.862237046666664,-77.83638285833334,336.332,-34.454,2,12,0.53,1.1,2,"""PSU_TestTrack"""
1722883529165871199,,17,,1722883529,165239334,"""SparkFun GPS GGA""","""GGA""",1722883529.0,200000.0,40.862232731666666,-77.83637164833333,336.311,-34.454,2,12,0.53,0.2,2,"""PSU_TestTrack"""
1722883529264202368,,18,,1722883529,263786077,"""SparkFun GPS GGA""","""GGA""",1722883529.0,300000.0,40.862228351666666,-77.83636039833333,336.287,-34.454,2,12,0.53,0.3,2,"""PSU_TestTrack"""
1722883529365499167,,19,,1722883529,364237308,"""SparkFun GPS GGA""","""GGA""",1722883529.0,400000.0,40.86222403,-77.83634909166666,336.258,-34.454,2,12,0.53,0.4,2,"""PSU_TestTrack"""
1722883529465314962,,20,,1722883529,464651823,"""SparkFun GPS GGA""","""GGA""",1722883529.0,500000.0,40.86221978,-77.83633776,336.219,-34.454,2,12,0.53,0.5,2,"""PSU_TestTrack"""
1722883529556992994,,21,,1722883529,556336164,"""SparkFun GPS GGA""","""GGA""",1722883529.0,600000.0,40.86221554,-77.83632637833334,336.179,-34.454,2,12,0.53,0.6,2,"""PSU_TestTrack"""
1722883529664332907,,22,,1722883529,663881063,"""SparkFun GPS GGA""","""GGA""",1722883529.0,700000.0,40.86221134666667,-77.83631482,336.142,-34.454,2,12,0.53,0.7,2,"""PSU_TestTrack"""
1722883529765516644,,23,,1722883529,764682531,"""SparkFun GPS GGA""","""GGA""",1722883529.0,800000.0,40.862207133333335,-77.83630321666666,336.117,-34.454,2,12,0.53,0.8,2,"""PSU_TestTrack"""
1722883529866522594,,24,,1722883529,865931034,"""SparkFun GPS GGA""","""GGA""",1722883529.0,900000.0,40.86220298166667,-77.83629145833333,336.091,-34.454,2,12,0.53,0.9,2,"""PSU_TestTrack"""
1722883529983503007,,25,,1722883529,981857299,"""SparkFun GPS GGA""","""GGA""",1722883530.0,0.0,40.862198881666664,-77.83627958833333,336.067,-34.454,2,12,0.53,1.0,2,"""PSU_TestTrack"""
1722883530067614045,,26,,1722883530,66941022,"""SparkFun GPS GGA""","""GGA""",1722883530.0,100000.0,40.8621948,-77.83626775333333,336.039,-34.454,2,12,0.53,1.1,2,"""PSU_TestTrack"""
1722883530169340566,,27,,1722883530,168674468,"""SparkFun GPS GGA""","""GGA""",1722883530.0,200000.0,40.862190823333336,-77.83625586833334,335.991,-34.454,2,12,0.53,1.2,2,"""PSU_TestTrack"""
1722883530263425026,,28,,1722883530,262750864,"""SparkFun GPS GGA""","""GGA""",1722883530.0,300000.0,40.86218691166667,-77.83624389333333,335.952,-34.454,2,12,0.53,0.3,2,"""PSU_TestTrack"""
1722883530370528917,,29,,1722883530,369614124,"""SparkFun GPS GGA""","""GGA""",1722883530.0,400000.0,40.862182055,-77.83623278166667,334.004,-34.454,4,12,0.53,0.4,6,"""PSU_TestTrack"""
1722883530459519296,,30,,1722883530,458980560,"""SparkFun GPS GGA""","""GGA""",1722883530.0,500000.0,40.86217822333333,-77.836220515,334.012,-34.454,4,12,0.53,0.5,6,"""PSU_TestTrack"""
1722883530568493491,,31,,1722883530,567762613,"""SparkFun GPS GGA""","""GGA""",1722883530.0,600000.0,40.86217447,-77.83620822166667,334.018,-34.454,4,12,0.53,0.6,6,"""PSU_TestTrack"""
1722883530677575531,,32,,1722883530,676339864,"""SparkFun GPS GGA""","""GGA""",1722883530.0,700000.0,40.86217074,-77.83619595333333,334.024,-34.454,4,12,0.53,0.7,6,"""PSU_TestTrack"""
1722883530769766902,,33,,1722883530,769203186,"""SparkFun GPS GGA""","""GGA""",1722883530.0,800000.0,40.862167103333334,-77.836183585,334.026,-34.454,4,12,0.53,0.8,6,"""PSU_TestTrack"""
1722883530873471086,,34,,1722883530,872646093,"""SparkFun GPS GGA""","""GGA""",1722883530.0,900000.0,40.862163545,-77.83617117333333,334.029,-34.454,4,12,0.53,0.9,6,"""PSU_TestTrack"""
1722883530980032756,,35,,1722883530,979295492,"""SparkFun GPS GGA""","""GGA""",1722883531.0,0.0,40.862160046666666,-77.83615873833334,334.03499999999997,-34.454,4,12,0.53,1.0,6,"""PSU_TestTrack"""
1722883531069905696,,36,,1722883531,69240331,"""SparkFun GPS GGA""","""GGA""",1722883531.0,100000.0,40.862156655,-77.83614629,334.038,-34.454,4,12,0.53,1.1,6,"""PSU_TestTrack"""
1722883531176866147,,37,,1722883531,175741910,"""SparkFun GPS GGA""","""GGA""",1722883531.0,200000.0,40.86215331333333,-77.83613385166667,334.04,-34.454,4,12,0.53,1.2,6,"""PSU_TestTrack"""
1722883531277153848,,38,,1722883531,276215791,"""SparkFun GPS GGA""","""GGA""",1722883531.0,300000.0,40.86215004666667,-77.83612135833333,334.039,-34.454,4,12,0.53,1.3,6,"""PSU_TestTrack"""
1722883531364794323,,39,,1722883531,364161014,"""SparkFun GPS GGA""","""GGA""",1722883531.0,400000.0,40.862146855,-77.83610887333333,334.039,-34.454,4,12,0.53,1.4,6,"""PSU_TestTrack"""
1722883531476215023,,40,,1722883531,475239515,"""SparkFun GPS GGA""","""GGA""",1722883531.0,500000.0,40.86214370333333,-77.83609635833334,334.046,-34.454,4,12,0.53,1.5,6,"""PSU_TestTrack"""
1722883531574935274,,41,,1722883531,574545383,"""SparkFun GPS GGA""","""GGA""",1722883531.0,600000.0,40.86214064166667,-77.83608384166666,334.04699999999997,-34.454,4,12,0.53,0.6,6,"""PSU_TestTrack"""
1722883531673684287,,42,,1722883531,672643423,"""SparkFun GPS GGA""","""GGA""",1722883531.0,700000.0,40.862137686666664,-77.83607136666667,334.042,-34.454,4,12,0.53,0.7,6,"""PSU_TestTrack"""
1722883531778992529,,43,,1722883531,777877330,"""SparkFun GPS GGA""","""GGA""",1722883531.0,800000.0,40.86213478,-77.836058805,334.042,-34.454,4,12,0.53,0.8,6,"""PSU_TestTrack"""
1722883531874326333,,44,,1722883531,873580694,"""SparkFun GPS GGA""","""GGA""",1722883531.0,900000.0,40.86213194166667,-77.83604623833334,334.046,-34.454,4,12,0.53,0.9,6,"""PSU_TestTrack"""
1722883532001652408,,45,,1722883532,915527,"""SparkFun GPS GGA""","""GGA""",1722883532.0,0.0,40.8621292,-77.836033635,334.058,-34.454,4,12,0.53,1.0,6,"""PSU_TestTrack"""
1722883532180203918,,46,,1722883532,179752349,"""SparkFun GPS GGA""","""GGA""",1722883532.0,200000.0,40.862123855,-77.83600849333334,334.058,-34.454,4,12,0.53,1.2,6,"""PSU_TestTrack"""
1722883532265600931,,47,,1722883532,264511585,"""SparkFun GPS GGA""","""GGA""",1722883532.0,300000.0,40.86212129,-77.83599584833334,334.067,-34.454,4,12,0.53,1.3,6,"""PSU_TestTrack"""
1722883532374878474,,48,,1722883532,374157667,"""SparkFun GPS GGA""","""GGA""",1722883532.0,400000.0,40.86211878833333,-77.83598321,334.075,-34.454,4,12,0.53,1.4,6,"""PSU_TestTrack"""
1722883532473865987,,49,,1722883532,473125934,"""SparkFun GPS GGA""","""GGA""",1722883532.0,500000.0,40.862116353333334,-77.83597056666666,334.079,-34.454,4,12,0.53,0.5,6,"""PSU_TestTrack"""
1722883532573834293,,50,,1722883532,572670936,"""SparkFun GPS GGA""","""GGA""",1722883532.0,600000.0,40.862113998333335,-77.83595790833333,334.079,-34.454,4,12,0.53,0.6,6,"""PSU_TestTrack"""
1722883532672065614,,51,,1722883532,671586275,"""SparkFun GPS GGA""","""GGA""",1722883532.0,700000.0,40.86211169166667,-77.83594528166667,334.07599999999996,-34.454,4,12,0.53,0.7,6,"""PSU_TestTrack"""
1722883532775971083,,52,,1722883532,774781703,"""SparkFun GPS GGA""","""GGA""",1722883532.0,800000.0,40.862109446666665,-77.83593265833333,334.07599999999996,-34.454,4,12,0.53,0.8,6,"""PSU_TestTrack"""
1722883532873499312,,53,,1722883532,872261285,"""SparkFun GPS GGA""","""GGA""",1722883532.0,900000.0,40.86210726666667,-77.835919995,334.07599999999996,-34.454,4,12,0.53,0.9,6,"""PSU_TestTrack"""
1722883532981399189,,54,,1722883532,980602979,"""SparkFun GPS GGA""","""GGA""",1722883533.0,0.0,40.862105135,-77.83590729666666,334.079,-34.454,4,12,0.53,1.0,6,"""PSU_TestTrack"""
1722883533073037299,,55,,1722883533,72385549,"""SparkFun GPS GGA""","""GGA""",1722883533.0,100000.0,40.862103051666665,-77.83589457166667,334.08299999999997,-34.454,4,12,0.53,1.1,6,"""PSU_TestTrack"""
1722883533160802718,,56,,1722883533,160037040,"""SparkFun GPS GGA""","""GGA""",1722883533.0,200000.0,40.862101001666666,-77.83588183833334,334.089,-34.454,4,12,0.53,1.2,6,"""PSU_TestTrack"""
1722883533268692854,,57,,1722883533,268264293,"""SparkFun GPS GGA""","""GGA""",1722883533.0,300000.0,40.86209904,-77.835869045,334.096,-34.454,4,12,0.53,1.3,6,"""PSU_TestTrack"""
1722883533371491312,,58,,1722883533,370583534,"""SparkFun GPS GGA""","""GGA""",1722883533.0,400000.0,40.86209710333333,-77.83585625333333,334.105,-34.454,4,12,0.53,0.4,6,"""PSU_TestTrack"""
1722883533466714047,,59,,1722883533,466183900,"""SparkFun GPS GGA""","""GGA""",1722883533.0,500000.0,40.862095215,-77.83584346166667,334.111,-34.454,4,12,0.53,0.5,6,"""PSU_TestTrack"""
1722883533570333786,,60,,1722883533,568018913,"""SparkFun GPS GGA""","""GGA""",1722883533.0,600000.0,40.86209341,-77.83583066666667,334.10699999999997,-34.454,4,12,0.53,0.6,6,"""PSU_TestTrack"""
1722883533668647692,,61,,1722883533,668097257,"""SparkFun GPS GGA""","""GGA""",1722883533.0,700000.0,40.86209167333333,-77.83581783166667,334.10699999999997,-34.454,4,12,0.53,0.7,6,"""PSU_TestTrack"""
1722883533776513636,,62,,1722883533,775253534,"""SparkFun GPS GGA""","""GGA""",1722883533.0,800000.0,40.86209001,-77.835804925,334.111,-34.454,4,12,0.53,0.8,6,"""PSU_TestTrack"""
1722883533866873223,,63,,1722883533,866349458,"""SparkFun GPS GGA""","""GGA""",1722883533.0,900000.0,40.86208844833333,-77.83579202333334,334.114,-34.454,4,12,0.53,0.9,6,"""PSU_TestTrack"""
1722883533987664918,,64,,1722883533,986759901,"""SparkFun GPS GGA""","""GGA""",1722883534.0,0.0,40.862086913333336,-77.835779085,334.118,-34.454,4,12,0.53,1.0,6,"""PSU_TestTrack"""
1722883534168098951,,65,,1722883534,167209625,"""SparkFun GPS GGA""","""GGA""",1722883534.0,200000.0,40.862084081666666,-77.83575318,334.114,-34.454,4,12,0.53,1.2,6,"""PSU_TestTrack"""
1722883534269482626,,66,,1722883534,268821001,"""SparkFun GPS GGA""","""GGA""",1722883534.0,300000.0,40.862082726666664,-77.83574021,334.111,-34.454,4,12,0.53,1.3,6,"""PSU_TestTrack"""
1722883534369265306,,67,,1722883534,367990493,"""SparkFun GPS GGA""","""GGA""",1722883534.0,400000.0,40.86208147166667,-77.83572722833334,334.109,-34.454,4,12,0.53,1.4,6,"""PSU_TestTrack"""
1722883534468202286,,68,,1722883534,466211318,"""SparkFun GPS GGA""","""GGA""",1722883534.0,500000.0,40.86208031666666,-77.835714205,334.106,-34.454,4,12,0.53,0.5,6,"""PSU_TestTrack"""
1722883534569485854,,69,,1722883534,568427562,"""SparkFun GPS GGA""","""GGA""",1722883534.0,600000.0,40.86207919333334,-77.83570113,334.11199999999997,-34.454,4,12,0.53,0.6,6,"""PSU_TestTrack"""
1722883534671026091,,70,,1722883534,670270681,"""SparkFun GPS GGA""","""GGA""",1722883534.0,700000.0,40.862078055,-77.835688065,334.123,-34.454,4,12,0.53,0.7,6,"""PSU_TestTrack"""
1722883534768183888,,71,,1722883534,767457485,"""SparkFun GPS GGA""","""GGA""",1722883534.0,800000.0,40.862076996666666,-77.83567497333334,334.131,-34.454,4,12,0.53,0.8,6,"""PSU_TestTrack"""
1722883534871465206,,72,,1722883534,870036125,"""SparkFun GPS GGA""","""GGA""",1722883534.0,900000.0,40.862075948333334,-77.83566182666667,334.143,-34.454,4,12,0.53,0.9,6,"""PSU_TestTrack"""
1722883534973590435,,73,,1722883534,973140001,"""SparkFun GPS GGA""","""GGA""",1722883535.0,0.0,40.86207496,-77.8356487,334.157,-34.454,4,12,0.53,1.0,6,"""PSU_TestTrack"""
1722883535097710865,,74,,1722883535,96886634,"""SparkFun GPS GGA""","""GGA""",1722883535.0,100000.0,40.862074066666665,-77.835635555,334.163,-34.454,4,12,0.53,1.1,6,"""PSU_TestTrack"""
1722883535271166693,,75,,1722883535,270508766,"""SparkFun GPS GGA""","""GGA""",1722883535.0,300000.0,40.862072475,-77.835609385,334.157,-34.454,4,12,0.53,0.3,6,"""PSU_TestTrack"""
1722883535370432215,,76,,1722883535,369733810,"""SparkFun GPS GGA""","""GGA""",1722883535.0,400000.0,40.86207176166667,-77.83559622,334.156,-34.454,4,12,0.53,0.4,6,"""PSU_TestTrack"""
1722883535470342038,,77,,1722883535,469884634,"""SparkFun GPS GGA""","""GGA""",1722883535.0,500000.0,40.86207114333333,-77.83558301666666,334.162,-34.454,4,12,0.53,0.5,6,"""PSU_TestTrack"""
1722883535573190840,,78,,1722883535,571783542,"""SparkFun GPS GGA""","""GGA""",1722883535.0,600000.0,40.862070525,-77.83556983833333,334.174,-34.454,4,12,0.53,0.6,6,"""PSU_TestTrack"""
1722883535671218099,,79,,1722883535,670332431,"""SparkFun GPS GGA""","""GGA""",1722883535.0,700000.0,40.86206996666667,-77.83555665833333,334.179,-34.454,4,12,0.53,0.7,6,"""PSU_TestTrack"""
1722883535777487099,,80,,1722883535,776759862,"""SparkFun GPS GGA""","""GGA""",1722883535.0,800000.0,40.8620695,-77.83554347333333,334.182,-34.454,4,12,0.53,0.8,6,"""PSU_TestTrack"""
1722883535861127892,,81,,1722883535,860443353,"""SparkFun GPS GGA""","""GGA""",1722883535.0,900000.0,40.86206911833333,-77.83553024,334.188,-34.454,4,12,0.53,0.9,6,"""PSU_TestTrack"""
1722883535999149469,,82,,1722883535,998462438,"""SparkFun GPS GGA""","""GGA""",1722883536.0,0.0,40.86206883,-77.83551700666666,334.19599999999997,-34.454,4,12,0.53,1.0,6,"""PSU_TestTrack"""
1722883536180395221,,83,,1722883536,179131031,"""SparkFun GPS GGA""","""GGA""",1722883536.0,200000.0,40.86206847333333,-77.83549056,334.198,-34.454,4,12,0.53,1.2,6,"""PSU_TestTrack"""
1722883536274185164,,84,,1722883536,273029327,"""SparkFun GPS GGA""","""GGA""",1722883536.0,300000.0,40.862068425,-77.83547728833334,334.199,-34.454,4,12,0.53,1.3,6,"""PSU_TestTrack"""
1722883536372914496,,85,,1722883536,372156381,"""SparkFun GPS GGA""","""GGA""",1722883536.0,400000.0,40.86206842166666,-77.835464035,334.209,-34.454,4,12,0.53,0.4,6,"""PSU_TestTrack"""
1722883536470732291,,86,,1722883536,470156431,"""SparkFun GPS GGA""","""GGA""",1722883536.0,500000.0,40.862068475,-77.83545074833333,334.212,-34.454,4,12,0.53,0.5,6,"""PSU_TestTrack"""
1722883536572755937,,87,,1722883536,572001934,"""SparkFun GPS GGA""","""GGA""",1722883536.0,600000.0,40.862068631666666,-77.83543746,334.214,-34.454,4,12,0.53,0.6,6,"""PSU_TestTrack"""
1722883536675061532,,88,,1722883536,674312114,"""SparkFun GPS GGA""","""GGA""",1722883536.0,700000.0,40.86206882333333,-77.835424185,334.214,-34.454,4,12,0.53,0.7,6,"""PSU_TestTrack"""
1722883536759979423,,89,,1722883536,759335517,"""SparkFun GPS GGA""","""GGA""",1722883536.0,800000.0,40.862069113333334,-77.83541089666667,334.214,-34.454,4,12,0.53,0.8,6,"""PSU_TestTrack"""
1722883536870668735,,90,,1722883536,869398117,"""SparkFun GPS GGA""","""GGA""",1722883536.0,900000.0,40.86206945833333,-77.83539762166667,334.212,-34.454,4,12,0.53,0.9,6,"""PSU_TestTrack"""
1722883536980676829,,91,,1722883536,980119228,"""SparkFun GPS GGA""","""GGA""",1722883537.0,0.0,40.862069866666666,-77.83538436333333,334.209,-34.454,4,12,0.53,1.0,6,"""PSU_TestTrack"""
1722883537065625227,,92,,1722883537,65074682,"""SparkFun GPS GGA""","""GGA""",1722883537.0,100000.0,40.86207033,-77.83537105666667,334.212,-34.454,4,12,0.53,1.1,6,"""PSU_TestTrack"""
1722883537171337013,,93,,1722883537,170671701,"""SparkFun GPS GGA""","""GGA""",1722883537.0,200000.0,40.86207084833333,-77.83535775166666,334.218,-34.454,4,12,0.53,1.2,6,"""PSU_TestTrack"""
1722883537266783076,,94,,1722883537,266001462,"""SparkFun GPS GGA""","""GGA""",1722883537.0,300000.0,40.86207146833333,-77.83534444166666,334.228,-34.454,4,12,0.53,1.3,6,"""PSU_TestTrack"""
1722883537365660182,,95,,1722883537,364881515,"""SparkFun GPS GGA""","""GGA""",1722883537.0,400000.0,40.862072121666664,-77.83533109,334.238,-34.454,4,12,0.53,1.4,6,"""PSU_TestTrack"""
1722883537465837618,,96,,1722883537,464944601,"""SparkFun GPS GGA""","""GGA""",1722883537.0,500000.0,40.86207282833333,-77.83531779666667,334.245,-34.454,4,12,0.53,1.5,6,"""PSU_TestTrack"""
1722883537566166769,,97,,1722883537,565531969,"""SparkFun GPS GGA""","""GGA""",1722883537.0,600000.0,40.86207361,-77.83530449833333,334.248,-34.454,4,12,0.53,1.6,6,"""PSU_TestTrack"""
1722883537666263271,,98,,1722883537,665747165,"""SparkFun GPS GGA""","""GGA""",1722883537.0,700000.0,40.86207443833333,-77.835291205,334.251,-34.454,4,12,0.53,1.7,6,"""PSU_TestTrack"""
1722883537764822976,,99,,1722883537,764219284,"""SparkFun GPS GGA""","""GGA""",1722883537.0,800000.0,40.862075383333334,-77.83527791166667,334.255,-34.454,4,12,0.53,0.8,6,"""PSU_TestTrack"""
1722883537864160512,,100,,1722883537,863812446,"""SparkFun GPS GGA""","""GGA""",1722883537.0,900000.0,40.86207636,-77.83526461333334,334.263,-34.454,4,12,0.53,0.9,6,"""PSU_TestTrack"""
1722883537978430938,,101,,1722883537,977226734,"""SparkFun GPS GGA""","""GGA""",1722883538.0,0.0,40.86207740166667,-77.83525130333334,334.267,-34.454,4,12,0.53,1.0,6,"""PSU_TestTrack"""
1722883538066136119,,102,,1722883538,65526008,"""SparkFun GPS GGA""","""GGA""",1722883538.0,100000.0,40.862078526666664,-77.83523800833333,334.271,-34.454,4,12,0.53,1.1,6,"""PSU_TestTrack"""
1722883538197529389,,103,,1722883538,196615695,"""SparkFun GPS GGA""","""GGA""",1722883538.0,200000.0,40.862079703333336,-77.83522472333334,334.275,-34.454,4,12,0.53,0.2,6,"""PSU_TestTrack"""
1722883538372137954,,104,,1722883538,371302366,"""SparkFun GPS GGA""","""GGA""",1722883538.0,400000.0,40.86208233833333,-77.83519821833333,334.276,-34.454,4,12,0.53,0.4,6,"""PSU_TestTrack"""
1722883538470522270,,105,,1722883538,469897508,"""SparkFun GPS GGA""","""GGA""",1722883538.0,500000.0,40.86208377,-77.835185015,334.272,-34.454,4,12,0.53,0.5,6,"""PSU_TestTrack"""
1722883538561123345,,106,,1722883538,560376882,"""SparkFun GPS GGA""","""GGA""",1722883538.0,600000.0,40.86208527666667,-77.83517176333334,334.274,-34.454,4,12,0.53,0.6,6,"""PSU_TestTrack"""
1722883538670118561,,107,,1722883538,669399976,"""SparkFun GPS GGA""","""GGA""",1722883538.0,700000.0,40.862086868333336,-77.83515851,334.286,-34.454,4,12,0.53,0.7,6,"""PSU_TestTrack"""
1722883538771926036,,108,,1722883538,771241426,"""SparkFun GPS GGA""","""GGA""",1722883538.0,800000.0,40.86208853,-77.83514525166666,334.298,-34.454,4,12,0.53,0.8,6,"""PSU_TestTrack"""
1722883538877429823,,109,,1722883538,876686334,"""SparkFun GPS GGA""","""GGA""",1722883538.0,900000.0,40.862090263333336,-77.83513201666666,334.31,-34.454,4,12,0.53,0.9,6,"""PSU_TestTrack"""
1722883538997712214,,110,,1722883538,997172117,"""SparkFun GPS GGA""","""GGA""",1722883539.0,0.0,40.86209208166667,-77.83511882,334.318,-34.454,4,12,0.53,1.0,6,"""PSU_TestTrack"""
1722883539176812383,,111,,1722883539,176187753,"""SparkFun GPS GGA""","""GGA""",1722883539.0,200000.0,40.86209592666667,-77.83509245666667,334.325,-34.454,4,12,0.53,1.2,6,"""PSU_TestTrack"""
1722883539268989786,,112,,1722883539,268481492,"""SparkFun GPS GGA""","""GGA""",1722883539.0,300000.0,40.862097946666665,-77.83507922333334,334.327,-34.454,4,12,0.53,1.3,6,"""PSU_TestTrack"""
1722883539371142272,,113,,1722883539,370631694,"""SparkFun GPS GGA""","""GGA""",1722883539.0,400000.0,40.86210007,-77.83506606333333,334.33299999999997,-34.454,4,12,0.53,1.4,6,"""PSU_TestTrack"""
1722883539460519304,,114,,1722883539,460204362,"""SparkFun GPS GGA""","""GGA""",1722883539.0,500000.0,40.862102265,-77.83505294666666,334.33299999999997,-34.454,4,12,0.53,1.5,6,"""PSU_TestTrack"""
1722883539568937538,,115,,1722883539,568435668,"""SparkFun GPS GGA""","""GGA""",1722883539.0,600000.0,40.86210453,-77.835039825,334.33299999999997,-34.454,4,12,0.53,0.6,6,"""PSU_TestTrack"""
1722883539671903173,,116,,1722883539,670883655,"""SparkFun GPS GGA""","""GGA""",1722883539.0,700000.0,40.862106868333335,-77.83502673333334,334.332,-34.454,4,12,0.53,0.7,6,"""PSU_TestTrack"""
1722883539769382410,,117,,1722883539,768744945,"""SparkFun GPS GGA""","""GGA""",1722883539.0,800000.0,40.86210926,-77.83501366166666,334.334,-34.454,4,12,0.53,0.8,6,"""PSU_TestTrack"""
1722883539875116398,,118,,1722883539,873783349,"""SparkFun GPS GGA""","""GGA""",1722883539.0,900000.0,40.862111755,-77.83500059666666,334.337,-34.454,4,12,0.53,0.9,6,"""PSU_TestTrack"""
1722883539999940769,,119,,1722883539,999378204,"""SparkFun GPS GGA""","""GGA""",1722883540.0,0.0,40.86211432,-77.83498752833333,334.346,-34.454,4,12,0.53,1.0,6,"""PSU_TestTrack"""
1722883540177841119,,120,,1722883540,177159070,"""SparkFun GPS GGA""","""GGA""",1722883540.0,200000.0,40.862119713333335,-77.83496153,334.364,-34.454,4,12,0.53,1.2,6,"""PSU_TestTrack"""
1722883540267044320,,121,,1722883540,266565084,"""SparkFun GPS GGA""","""GGA""",1722883540.0,300000.0,40.86212247,-77.83494851333333,334.36899999999997,-34.454,4,12,0.53,1.3,6,"""PSU_TestTrack"""
1722883540363095739,,122,,1722883540,361811637,"""SparkFun GPS GGA""","""GGA""",1722883540.0,400000.0,40.86212537666667,-77.834935565,334.379,-34.454,4,12,0.53,1.4,6,"""PSU_TestTrack"""
1722883540465605770,,123,,1722883540,465159893,"""SparkFun GPS GGA""","""GGA""",1722883540.0,500000.0,40.86212831666667,-77.83492260166666,334.381,-34.454,4,12,0.53,1.5,6,"""PSU_TestTrack"""
1722883540567403287,,124,,1722883540,565975666,"""SparkFun GPS GGA""","""GGA""",1722883540.0,600000.0,40.86213132333334,-77.83490966833334,334.384,-34.454,4,12,0.53,1.6,6,"""PSU_TestTrack"""
1722883540665580151,,125,,1722883540,665241241,"""SparkFun GPS GGA""","""GGA""",1722883540.0,700000.0,40.862134426666664,-77.83489676833334,334.38599999999997,-34.454,4,12,0.53,1.7,6,"""PSU_TestTrack"""
1722883540766153966,,126,,1722883540,765521526,"""SparkFun GPS GGA""","""GGA""",1722883540.0,800000.0,40.862137606666664,-77.83488389,334.39,-34.454,4,12,0.53,0.8,6,"""PSU_TestTrack"""
1722883540868667353,,127,,1722883540,867798328,"""SparkFun GPS GGA""","""GGA""",1722883540.0,900000.0,40.862140823333334,-77.83487103333333,334.389,-34.454,4,12,0.53,0.9,6,"""PSU_TestTrack"""
1722883540977147918,,128,,1722883540,976022005,"""SparkFun GPS GGA""","""GGA""",1722883541.0,0.0,40.86214415833334,-77.83485825666666,334.389,-34.454,4,12,0.53,1.0,6,"""PSU_TestTrack"""
1722883541069730187,,129,,1722883541,69195747,"""SparkFun GPS GGA""","""GGA""",1722883541.0,100000.0,40.86214751666667,-77.834845475,334.38599999999997,-34.454,4,12,0.53,1.1,6,"""PSU_TestTrack"""
1722883541166425673,,130,,1722883541,165325164,"""SparkFun GPS GGA""","""GGA""",1722883541.0,200000.0,40.86215099,-77.83483274166667,334.389,-34.454,4,12,0.53,1.2,6,"""PSU_TestTrack"""
1722883541258686864,,131,,1722883541,257597684,"""SparkFun GPS GGA""","""GGA""",1722883541.0,300000.0,40.862154548333336,-77.83481996,334.39799999999997,-34.454,4,12,0.53,1.3,6,"""PSU_TestTrack"""
1722883541365014519,,132,,1722883541,364282131,"""SparkFun GPS GGA""","""GGA""",1722883541.0,400000.0,40.862158148333336,-77.834807205,334.406,-34.454,4,12,0.53,1.4,6,"""PSU_TestTrack"""
1722883541465066126,,133,,1722883541,464443922,"""SparkFun GPS GGA""","""GGA""",1722883541.0,500000.0,40.862161815,-77.83479451833334,334.414,-34.454,4,12,0.53,1.5,6,"""PSU_TestTrack"""
1722883541565086067,,134,,1722883541,564466476,"""SparkFun GPS GGA""","""GGA""",1722883541.0,600000.0,40.86216555666667,-77.83478182666667,334.42,-34.454,4,12,0.53,0.6,6,"""PSU_TestTrack"""
1722883541664684439,,135,,1722883541,664180994,"""SparkFun GPS GGA""","""GGA""",1722883541.0,700000.0,40.86216932333333,-77.83476921333333,334.42,-34.454,4,12,0.53,0.7,6,"""PSU_TestTrack"""
1722883541769531579,,136,,1722883541,768342494,"""SparkFun GPS GGA""","""GGA""",1722883541.0,800000.0,40.862173185,-77.834756615,334.42199999999997,-34.454,4,12,0.53,0.8,6,"""PSU_TestTrack"""
1722883541863734576,,137,,1722883541,863375902,"""SparkFun GPS GGA""","""GGA""",1722883541.0,900000.0,40.862177065,-77.834743975,334.415,-34.454,4,12,0.53,0.9,6,"""PSU_TestTrack"""
1722883541981957786,,138,,1722883541,980350255,"""SparkFun GPS GGA""","""GGA""",1722883542.0,0.0,40.86218105,-77.83473139666667,334.426,-34.454,4,12,0.53,1.0,6,"""PSU_TestTrack"""
1722883542067759427,,139,,1722883542,67042589,"""SparkFun GPS GGA""","""GGA""",1722883542.0,100000.0,40.86218509,-77.83471888,334.433,-34.454,4,12,0.53,1.1,6,"""PSU_TestTrack"""
1722883542162197691,,140,,1722883542,161264896,"""SparkFun GPS GGA""","""GGA""",1722883542.0,200000.0,40.862189193333336,-77.83470642166667,334.436,-34.454,4,12,0.53,0.2,6,"""PSU_TestTrack"""
1722883542267380557,,141,,1722883542,266237497,"""SparkFun GPS GGA""","""GGA""",1722883542.0,300000.0,40.86219333333333,-77.834693975,334.435,-34.454,4,12,0.53,0.3,6,"""PSU_TestTrack"""
1722883542367452759,,142,,1722883542,367056369,"""SparkFun GPS GGA""","""GGA""",1722883542.0,400000.0,40.86219759,-77.834681545,334.436,-34.454,4,12,0.53,0.4,6,"""PSU_TestTrack"""
1722883542466453031,,143,,1722883542,465472698,"""SparkFun GPS GGA""","""GGA""",1722883542.0,500000.0,40.862201858333336,-77.83466913833334,334.438,-34.454,4,12,0.53,0.5,6,"""PSU_TestTrack"""
1722883542569129185,,144,,1722883542,568355798,"""SparkFun GPS GGA""","""GGA""",1722883542.0,600000.0,40.86220624166667,-77.83465676166666,334.44599999999997,-34.454,4,12,0.53,0.6,6,"""PSU_TestTrack"""
1722883542668143358,,145,,1722883542,667445421,"""SparkFun GPS GGA""","""GGA""",1722883542.0,700000.0,40.86221067,-77.83464447,334.457,-34.454,4,12,0.53,0.7,6,"""PSU_TestTrack"""
1722883542771013290,,146,,1722883542,770204782,"""SparkFun GPS GGA""","""GGA""",1722883542.0,800000.0,40.86221511833333,-77.83463222166667,334.462,-34.454,4,12,0.53,0.8,6,"""PSU_TestTrack"""
1722883542867450737,,147,,1722883542,866744518,"""SparkFun GPS GGA""","""GGA""",1722883542.0,900000.0,40.862219663333335,-77.83461997833334,334.468,-34.454,4,12,0.53,0.9,6,"""PSU_TestTrack"""
1722883542978632588,,148,,1722883542,977994918,"""SparkFun GPS GGA""","""GGA""",1722883543.0,0.0,40.862224265,-77.83460769333334,334.485,-34.454,4,12,0.53,1.0,6,"""PSU_TestTrack"""
1722883543065934814,,149,,1722883543,65272569,"""SparkFun GPS GGA""","""GGA""",1722883543.0,100000.0,40.86222892666667,-77.83459546833333,334.503,-34.454,4,12,0.53,1.1,6,"""PSU_TestTrack"""
1722883543175534079,,150,,1722883543,174281358,"""SparkFun GPS GGA""","""GGA""",1722883543.0,200000.0,40.86223362,-77.83458331,334.508,-34.454,4,12,0.53,1.2,6,"""PSU_TestTrack"""
1722883543268001740,,151,,1722883543,267374753,"""SparkFun GPS GGA""","""GGA""",1722883543.0,300000.0,40.862238383333334,-77.83457118333334,334.51,-34.454,4,12,0.53,1.3,6,"""PSU_TestTrack"""
1722883543366280132,,152,,1722883543,365701198,"""SparkFun GPS GGA""","""GGA""",1722883543.0,400000.0,40.86224317,-77.83455905833333,334.512,-34.454,4,12,0.53,1.4,6,"""PSU_TestTrack"""
1722883543469565734,,153,,1722883543,469008207,"""SparkFun GPS GGA""","""GGA""",1722883543.0,500000.0,40.86224804,-77.83454712,334.515,-34.454,4,12,0.53,1.5,6,"""PSU_TestTrack"""
1722883543567205631,,154,,1722883543,566781044,"""SparkFun GPS GGA""","""GGA""",1722883543.0,600000.0,40.86225289,-77.83453518333333,334.51099999999997,-34.454,4,12,0.53,0.6,6,"""PSU_TestTrack"""
1722883543665895982,,155,,1722883543,665304660,"""SparkFun GPS GGA""","""GGA""",1722883543.0,700000.0,40.862257846666665,-77.83452321,334.51,-34.454,4,12,0.53,0.7,6,"""PSU_TestTrack"""
1722883543769287456,,156,,1722883543,768637657,"""SparkFun GPS GGA""","""GGA""",1722883543.0,800000.0,40.862262963333336,-77.83451122166667,334.537,-34.454,4,12,0.53,0.8,6,"""PSU_TestTrack"""
1722883543872520955,,157,,1722883543,872009754,"""SparkFun GPS GGA""","""GGA""",1722883543.0,900000.0,40.862268136666664,-77.83449923666667,334.56399999999996,-34.454,4,12,0.53,0.9,6,"""PSU_TestTrack"""
1722883543977949486,,158,,1722883543,977034568,"""SparkFun GPS GGA""","""GGA""",1722883544.0,0.0,40.862273263333336,-77.83448738333334,334.572,-34.454,4,12,0.53,1.0,6,"""PSU_TestTrack"""
1722883544076511331,,159,,1722883544,75811862,"""SparkFun GPS GGA""","""GGA""",1722883544.0,100000.0,40.862278405,-77.83447560333333,334.562,-34.454,4,12,0.53,1.1,6,"""PSU_TestTrack"""
1722883544169852763,,160,,1722883544,169108629,"""SparkFun GPS GGA""","""GGA""",1722883544.0,200000.0,40.86228361,-77.83446394666667,334.551,-34.454,4,12,0.53,1.2,6,"""PSU_TestTrack"""
1722883544264669141,,161,,1722883544,264401435,"""SparkFun GPS GGA""","""GGA""",1722883544.0,300000.0,40.862288928333335,-77.83445223,334.553,-34.454,4,12,0.53,1.3,6,"""PSU_TestTrack"""
1722883544363697671,,162,,1722883544,363169193,"""SparkFun GPS GGA""","""GGA""",1722883544.0,400000.0,40.862294245,-77.83444044,334.565,-34.454,4,12,0.53,1.4,6,"""PSU_TestTrack"""
1722883544463298813,,163,,1722883544,462536096,"""SparkFun GPS GGA""","""GGA""",1722883544.0,500000.0,40.86229963,-77.834428685,334.581,-34.454,4,12,0.53,1.5,6,"""PSU_TestTrack"""
1722883544570347127,,164,,1722883544,569404840,"""SparkFun GPS GGA""","""GGA""",1722883544.0,600000.0,40.86230505166667,-77.83441702166667,334.594,-34.454,4,12,0.53,1.6,6,"""PSU_TestTrack"""
1722883544669172174,,165,,1722883544,668364763,"""SparkFun GPS GGA""","""GGA""",1722883544.0,700000.0,40.86231052833333,-77.83440546166666,334.59999999999997,-34.454,4,12,0.53,1.7,6,"""PSU_TestTrack"""
1722883544765534152,,166,,1722883544,764763832,"""SparkFun GPS GGA""","""GGA""",1722883544.0,800000.0,40.86231593833333,-77.83439403333334,334.59999999999997,-34.454,4,12,0.53,0.8,6,"""PSU_TestTrack"""
1722883544853934801,,167,,1722883544,853387832,"""SparkFun GPS GGA""","""GGA""",1722883544.0,900000.0,40.862321488333336,-77.83438251333334,334.603,-34.454,4,12,0.53,0.9,6,"""PSU_TestTrack"""
1722883544969864044,,168,,1722883544,969064474,"""SparkFun GPS GGA""","""GGA""",1722883545.0,0.0,40.86232718833333,-77.83437092166666,334.62399999999997,-34.454,4,12,0.53,1.0,6,"""PSU_TestTrack"""
1722883545073213995,,169,,1722883545,72422504,"""SparkFun GPS GGA""","""GGA""",1722883545.0,100000.0,40.86233284833333,-77.83435924166666,334.663,-34.454,4,12,0.53,1.1,6,"""PSU_TestTrack"""
1722883545170210657,,170,,1722883545,169423341,"""SparkFun GPS GGA""","""GGA""",1722883545.0,200000.0,40.862338615,-77.83434775833334,334.683,-34.454,4,12,0.53,1.2,6,"""PSU_TestTrack"""
1722883545266621235,,171,,1722883545,266139745,"""SparkFun GPS GGA""","""GGA""",1722883545.0,300000.0,40.862344285,-77.834336335,334.681,-34.454,4,12,0.53,1.3,6,"""PSU_TestTrack"""
1722883545363876783,,172,,1722883545,363261461,"""SparkFun GPS GGA""","""GGA""",1722883545.0,400000.0,40.86235000833334,-77.834325035,334.675,-34.454,4,12,0.53,1.4,6,"""PSU_TestTrack"""
1722883545460863095,,173,,1722883545,460178852,"""SparkFun GPS GGA""","""GGA""",1722883545.0,500000.0,40.862355711666666,-77.83431385166666,334.654,-34.454,4,12,0.53,1.5,6,"""PSU_TestTrack"""
1722883545567832826,,174,,1722883545,567164421,"""SparkFun GPS GGA""","""GGA""",1722883545.0,600000.0,40.86236147,-77.83430258166666,334.637,-34.454,4,12,0.53,0.6,6,"""PSU_TestTrack"""
1722883545673040298,,175,,1722883545,672439336,"""SparkFun GPS GGA""","""GGA""",1722883545.0,700000.0,40.862367345,-77.83429131333334,334.659,-34.454,4,12,0.53,0.7,6,"""PSU_TestTrack"""
1722883545755395975,,176,,1722883545,754608631,"""SparkFun GPS GGA""","""GGA""",1722883545.0,800000.0,40.862373285,-77.83428001,334.693,-34.454,4,12,0.53,0.8,6,"""PSU_TestTrack"""
1722883545868224420,,177,,1722883545,867697238,"""SparkFun GPS GGA""","""GGA""",1722883545.0,900000.0,40.86237924833333,-77.834268705,334.71999999999997,-34.454,4,12,0.53,0.9,6,"""PSU_TestTrack"""
1722883545997988317,,178,,1722883545,997164249,"""SparkFun GPS GGA""","""GGA""",1722883546.0,0.0,40.86238521,-77.83425748666667,334.738,-34.454,4,12,0.53,1.0,6,"""PSU_TestTrack"""
1722883546174359264,,179,,1722883546,173806190,"""SparkFun GPS GGA""","""GGA""",1722883546.0,200000.0,40.862397351666665,-77.834235445,334.721,-34.454,4,12,0.53,0.2,6,"""PSU_TestTrack"""
1722883546270820415,,180,,1722883546,269579887,"""SparkFun GPS GGA""","""GGA""",1722883546.0,300000.0,40.8624034,-77.83422437833333,334.71,-34.454,4,12,0.53,0.3,6,"""PSU_TestTrack"""
1722883546409353740,,181,,1722883546,408617734,"""SparkFun GPS GGA""","""GGA""",1722883546.0,400000.0,40.86240961833333,-77.83421339333333,334.726,-34.454,4,12,0.53,0.4,6,"""PSU_TestTrack"""
1722883546570972328,,182,,1722883546,569798707,"""SparkFun GPS GGA""","""GGA""",1722883546.0,600000.0,40.86242179833334,-77.83419134,334.75,-34.454,4,12,0.53,0.6,6,"""PSU_TestTrack"""
1722883546665335317,,183,,1722883546,664815902,"""SparkFun GPS GGA""","""GGA""",1722883546.0,700000.0,40.86242794333333,-77.83418038,334.764,-34.454,4,12,0.53,0.7,6,"""PSU_TestTrack"""
1722883546768728538,,184,,1722883546,768047094,"""SparkFun GPS GGA""","""GGA""",1722883546.0,800000.0,40.862434095,-77.83416947166667,334.777,-34.454,4,12,0.53,0.8,6,"""PSU_TestTrack"""
1722883546870347119,,185,,1722883546,869670867,"""SparkFun GPS GGA""","""GGA""",1722883546.0,900000.0,40.86244025166667,-77.83415848666667,334.786,-34.454,4,12,0.53,0.9,6,"""PSU_TestTrack"""
1722883546971196422,,186,,1722883546,970685005,"""SparkFun GPS GGA""","""GGA""",1722883547.0,0.0,40.86244641,-77.83414761,334.795,-34.454,4,12,0.53,1.0,6,"""PSU_TestTrack"""
1722883547066247434,,187,,1722883547,65738677,"""SparkFun GPS GGA""","""GGA""",1722883547.0,100000.0,40.862452605,-77.83413680166667,334.806,-34.454,4,12,0.53,1.1,6,"""PSU_TestTrack"""
1722883547169722347,,188,,1722883547,169050455,"""SparkFun GPS GGA""","""GGA""",1722883547.0,200000.0,40.862458786666664,-77.834126035,334.813,-34.454,4,12,0.53,1.2,6,"""PSU_TestTrack"""
1722883547262197872,,189,,1722883547,261565208,"""SparkFun GPS GGA""","""GGA""",1722883547.0,300000.0,40.86246498166667,-77.83411535166667,334.822,-34.454,4,12,0.53,1.3,6,"""PSU_TestTrack"""
1722883547362969071,,190,,1722883547,362469673,"""SparkFun GPS GGA""","""GGA""",1722883547.0,400000.0,40.862471041666666,-77.83410468333334,334.822,-34.454,4,12,0.53,1.4,6,"""PSU_TestTrack"""
1722883547471504586,,191,,1722883547,469815015,"""SparkFun GPS GGA""","""GGA""",1722883547.0,500000.0,40.86247715166667,-77.83409413833333,334.82599999999996,-34.454,4,12,0.53,1.5,6,"""PSU_TestTrack"""
1722883547556733948,,192,,1722883547,556183576,"""SparkFun GPS GGA""","""GGA""",1722883547.0,600000.0,40.86248319166667,-77.83408361666666,334.827,-34.454,4,12,0.53,0.6,6,"""PSU_TestTrack"""
1722883547668343889,,193,,1722883547,667584419,"""SparkFun GPS GGA""","""GGA""",1722883547.0,700000.0,40.86248917166667,-77.834073135,334.832,-34.454,4,12,0.53,0.7,6,"""PSU_TestTrack"""
1722883547763253217,,194,,1722883547,762474298,"""SparkFun GPS GGA""","""GGA""",1722883547.0,800000.0,40.86249518666666,-77.83406279,334.84499999999997,-34.454,4,12,0.53,0.8,6,"""PSU_TestTrack"""
1722883547860751107,,195,,1722883547,860025644,"""SparkFun GPS GGA""","""GGA""",1722883547.0,900000.0,40.862501126666665,-77.83405248666666,334.851,-34.454,4,12,0.53,0.9,6,"""PSU_TestTrack"""
1722883547978632836,,196,,1722883547,977768898,"""SparkFun GPS GGA""","""GGA""",1722883548.0,0.0,40.862507015,-77.834042275,334.866,-34.454,4,12,0.53,1.0,6,"""PSU_TestTrack"""
1722883548068828378,,197,,1722883548,68312168,"""SparkFun GPS GGA""","""GGA""",1722883548.0,100000.0,40.862512775,-77.83403215333334,334.86899999999997,-34.454,4,12,0.53,1.1,6,"""PSU_TestTrack"""
1722883548162625019,,198,,1722883548,162079334,"""SparkFun GPS GGA""","""GGA""",1722883548.0,200000.0,40.862518595,-77.83402223833333,334.882,-34.454,4,12,0.53,1.2,6,"""PSU_TestTrack"""
1722883548274856634,,199,,1722883548,274170637,"""SparkFun GPS GGA""","""GGA""",1722883548.0,300000.0,40.862524335,-77.83401233333333,334.89,-34.454,4,12,0.53,1.3,6,"""PSU_TestTrack"""
1722883548364622147,,200,,1722883548,364147186,"""SparkFun GPS GGA""","""GGA""",1722883548.0,400000.0,40.862530121666666,-77.83400254666667,334.904,-34.454,4,12,0.53,0.4,6,"""PSU_TestTrack"""
1722883548460043591,,201,,1722883548,459350109,"""SparkFun GPS GGA""","""GGA""",1722883548.0,500000.0,40.862535638333334,-77.83399291333333,334.912,-34.454,4,12,0.53,0.5,6,"""PSU_TestTrack"""
1722883548564742294,,202,,1722883548,564372777,"""SparkFun GPS GGA""","""GGA""",1722883548.0,600000.0,40.862541093333334,-77.83398350166667,334.89799999999997,-34.454,4,12,0.53,0.6,6,"""PSU_TestTrack"""
1722883548668436493,,203,,1722883548,667862892,"""SparkFun GPS GGA""","""GGA""",1722883548.0,700000.0,40.86254637,-77.83397423166667,334.868,-34.454,4,12,0.53,0.7,6,"""PSU_TestTrack"""
1722883548767409533,,204,,1722883548,767104625,"""SparkFun GPS GGA""","""GGA""",1722883548.0,800000.0,40.862551771666666,-77.833965025,334.873,-34.454,4,12,0.53,0.8,6,"""PSU_TestTrack"""
1722883548861924716,,205,,1722883548,861593008,"""SparkFun GPS GGA""","""GGA""",1722883548.0,900000.0,40.86255705833333,-77.83395586833333,334.888,-34.454,4,12,0.53,0.9,6,"""PSU_TestTrack"""
1722883548973746088,,206,,1722883548,972806692,"""SparkFun GPS GGA""","""GGA""",1722883549.0,0.0,40.86256225333333,-77.83394688999999,334.903,-34.454,4,12,0.53,1.0,6,"""PSU_TestTrack"""
1722883549073353810,,207,,1722883549,72205305,"""SparkFun GPS GGA""","""GGA""",1722883549.0,100000.0,40.86256743166667,-77.83393799833334,334.919,-34.454,4,12,0.53,1.1,6,"""PSU_TestTrack"""
1722883549217599465,,208,,1722883549,216885805,"""SparkFun GPS GGA""","""GGA""",1722883549.0,200000.0,40.862572488333335,-77.83392934,334.925,-34.454,4,12,0.53,1.2,6,"""PSU_TestTrack"""
1722883549358836688,,209,,1722883549,358254671,"""SparkFun GPS GGA""","""GGA""",1722883549.0,400000.0,40.86258235333333,-77.83391256833333,334.917,-34.454,4,12,0.53,1.4,6,"""PSU_TestTrack"""
1722883549460856740,,210,,1722883549,460451364,"""SparkFun GPS GGA""","""GGA""",1722883549.0,500000.0,40.862587075,-77.83390431166667,334.913,-34.454,4,12,0.53,1.5,6,"""PSU_TestTrack"""
1722883549563760027,,211,,1722883549,562826156,"""SparkFun GPS GGA""","""GGA""",1722883549.0,600000.0,40.86259176666667,-77.83389632,334.915,-34.454,4,12,0.53,1.6,6,"""PSU_TestTrack"""
1722883549669026989,,212,,1722883549,668182134,"""SparkFun GPS GGA""","""GGA""",1722883549.0,700000.0,40.86259638333333,-77.83388841666667,334.918,-34.454,4,12,0.53,0.7,6,"""PSU_TestTrack"""
1722883549762455289,,213,,1722883549,761865139,"""SparkFun GPS GGA""","""GGA""",1722883549.0,800000.0,40.862600895,-77.83388067833333,334.92,-34.454,4,12,0.53,0.8,6,"""PSU_TestTrack"""
1722883549862287029,,214,,1722883549,861895084,"""SparkFun GPS GGA""","""GGA""",1722883549.0,900000.0,40.86260532166666,-77.833873185,334.929,-34.454,4,12,0.53,0.9,6,"""PSU_TestTrack"""
1722883549976248963,,215,,1722883549,974470615,"""SparkFun GPS GGA""","""GGA""",1722883550.0,0.0,40.86260956833333,-77.83386573666667,334.932,-34.454,4,12,0.53,1.0,6,"""PSU_TestTrack"""
1722883550064112126,,216,,1722883550,63665628,"""SparkFun GPS GGA""","""GGA""",1722883550.0,100000.0,40.86261385833333,-77.83385859166667,334.926,-34.454,4,12,0.53,1.1,6,"""PSU_TestTrack"""
1722883550168674771,,217,,1722883550,167976617,"""SparkFun GPS GGA""","""GGA""",1722883550.0,200000.0,40.86261783166667,-77.83385181333334,334.916,-34.454,4,12,0.53,1.2,6,"""PSU_TestTrack"""
1722883550255574300,,218,,1722883550,254503488,"""SparkFun GPS GGA""","""GGA""",1722883550.0,300000.0,40.862621716666666,-77.83384495833333,334.916,-34.454,4,12,0.53,1.3,6,"""PSU_TestTrack"""
1722883550363778213,,219,,1722883550,363337278,"""SparkFun GPS GGA""","""GGA""",1722883550.0,400000.0,40.86262549833334,-77.833838285,334.92,-34.454,4,12,0.53,1.4,6,"""PSU_TestTrack"""
1722883550461864186,,220,,1722883550,461421489,"""SparkFun GPS GGA""","""GGA""",1722883550.0,500000.0,40.862629275,-77.83383194333334,334.911,-34.454,4,12,0.53,1.5,6,"""PSU_TestTrack"""
1722883550564003738,,221,,1722883550,562766790,"""SparkFun GPS GGA""","""GGA""",1722883550.0,600000.0,40.86263307666667,-77.83382573333333,334.924,-34.454,4,12,0.53,1.6,6,"""PSU_TestTrack"""
1722883550665925117,,222,,1722883550,665564060,"""SparkFun GPS GGA""","""GGA""",1722883550.0,700000.0,40.86263674833334,-77.833819635,334.94599999999997,-34.454,4,12,0.53,0.7,6,"""PSU_TestTrack"""
1722883550774196273,,223,,1722883550,772427797,"""SparkFun GPS GGA""","""GGA""",1722883550.0,800000.0,40.862640393333336,-77.833813865,334.94599999999997,-34.454,4,12,0.53,0.8,6,"""PSU_TestTrack"""
1722883550861551328,,224,,1722883550,861118793,"""SparkFun GPS GGA""","""GGA""",1722883550.0,900000.0,40.862643678333335,-77.83380810333334,334.948,-34.454,4,12,0.53,0.9,6,"""PSU_TestTrack"""
1722883550974353030,,225,,1722883550,972063064,"""SparkFun GPS GGA""","""GGA""",1722883551.0,0.0,40.86264687,-77.833802445,334.957,-34.454,4,12,0.53,1.0,6,"""PSU_TestTrack"""
1722883551069623028,,226,,1722883551,68993330,"""SparkFun GPS GGA""","""GGA""",1722883551.0,100000.0,40.862649925,-77.83379683166666,334.972,-34.454,4,12,0.53,1.1,6,"""PSU_TestTrack"""
1722883551162587225,,227,,1722883551,161019563,"""SparkFun GPS GGA""","""GGA""",1722883551.0,200000.0,40.862652886666666,-77.83379141333333,334.966,-34.454,4,12,0.53,1.2,6,"""PSU_TestTrack"""
1722883551261894982,,228,,1722883551,261292695,"""SparkFun GPS GGA""","""GGA""",1722883551.0,300000.0,40.86265622333333,-77.83378640166667,334.953,-34.454,4,12,0.53,1.3,6,"""PSU_TestTrack"""
1722883551371271580,,229,,1722883551,370533704,"""SparkFun GPS GGA""","""GGA""",1722883551.0,400000.0,40.86265944666667,-77.83378148833333,334.945,-34.454,4,12,0.53,1.4,6,"""PSU_TestTrack"""
1722883551463442646,,230,,1722883551,462803602,"""SparkFun GPS GGA""","""GGA""",1722883551.0,500000.0,40.86266238166667,-77.833776615,334.944,-34.454,4,12,0.53,0.5,6,"""PSU_TestTrack"""
1722883551561777335,,231,,1722883551,561307191,"""SparkFun GPS GGA""","""GGA""",1722883551.0,600000.0,40.862665238333335,-77.83377170333333,334.948,-34.454,4,12,0.53,0.6,6,"""PSU_TestTrack"""
1722883551668595123,,232,,1722883551,667748451,"""SparkFun GPS GGA""","""GGA""",1722883551.0,700000.0,40.86266788333333,-77.83376681,334.941,-34.454,4,12,0.53,0.7,6,"""PSU_TestTrack"""
1722883551762594244,,233,,1722883551,761736631,"""SparkFun GPS GGA""","""GGA""",1722883551.0,800000.0,40.86267050666667,-77.83376177833334,334.966,-34.454,4,12,0.53,0.8,6,"""PSU_TestTrack"""
1722883551867898164,,234,,1722883551,867501497,"""SparkFun GPS GGA""","""GGA""",1722883551.0,900000.0,40.86267318,-77.83375711666666,334.962,-34.454,4,12,0.53,0.9,6,"""PSU_TestTrack"""
1722883551995667242,,235,,1722883551,995054483,"""SparkFun GPS GGA""","""GGA""",1722883552.0,0.0,40.862675965,-77.83375259166667,334.965,-34.454,4,12,0.53,1.0,6,"""PSU_TestTrack"""
1722883552166677091,,236,,1722883552,165409564,"""SparkFun GPS GGA""","""GGA""",1722883552.0,200000.0,40.862681505,-77.83374345666667,334.978,-34.454,4,12,0.53,1.2,6,"""PSU_TestTrack"""
1722883552269832486,,237,,1722883552,269315242,"""SparkFun GPS GGA""","""GGA""",1722883552.0,300000.0,40.86268427666667,-77.83373901666667,334.967,-34.454,4,12,0.53,1.3,6,"""PSU_TestTrack"""
1722883552363430636,,238,,1722883552,362980842,"""SparkFun GPS GGA""","""GGA""",1722883552.0,400000.0,40.86268689,-77.83373448166667,334.953,-34.454,4,12,0.53,0.4,6,"""PSU_TestTrack"""
1722883552462244120,,239,,1722883552,461800813,"""SparkFun GPS GGA""","""GGA""",1722883552.0,500000.0,40.86268944166667,-77.83373004,334.94599999999997,-34.454,4,12,0.53,0.5,6,"""PSU_TestTrack"""
1722883552567375733,,240,,1722883552,566460609,"""SparkFun GPS GGA""","""GGA""",1722883552.0,600000.0,40.86269197833333,-77.83372542,334.968,-34.454,4,12,0.53,0.6,6,"""PSU_TestTrack"""
1722883552673877505,,241,,1722883552,673005819,"""SparkFun GPS GGA""","""GGA""",1722883552.0,700000.0,40.86269454,-77.83372092666667,334.98199999999997,-34.454,4,12,0.53,0.7,6,"""PSU_TestTrack"""
1722883552769415340,,242,,1722883552,768532037,"""SparkFun GPS GGA""","""GGA""",1722883552.0,800000.0,40.862697178333335,-77.83371647166666,334.992,-34.454,4,12,0.53,0.8,6,"""PSU_TestTrack"""
1722883552864559136,,243,,1722883552,863729715,"""SparkFun GPS GGA""","""GGA""",1722883552.0,900000.0,40.86269973833333,-77.83371189333333,334.998,-34.454,4,12,0.53,0.9,6,"""PSU_TestTrack"""
1722883552961930218,,244,,1722883552,961412429,"""SparkFun GPS GGA""","""GGA""",1722883553.0,0.0,40.862702315,-77.83370742833333,334.99,-34.454,4,12,0.53,1.0,6,"""PSU_TestTrack"""
1722883553066130237,,245,,1722883553,65719842,"""SparkFun GPS GGA""","""GGA""",1722883553.0,100000.0,40.86270484333333,-77.833702945,334.98199999999997,-34.454,4,12,0.53,1.1,6,"""PSU_TestTrack"""
1722883553166087141,,246,,1722883553,165626525,"""SparkFun GPS GGA""","""GGA""",1722883553.0,200000.0,40.86270750333333,-77.833698415,334.988,-34.454,4,12,0.53,1.2,6,"""PSU_TestTrack"""
1722883553263980370,,247,,1722883553,263417005,"""SparkFun GPS GGA""","""GGA""",1722883553.0,300000.0,40.8627102,-77.83369398166667,335.002,-34.454,4,12,0.53,0.3,6,"""PSU_TestTrack"""
1722883553369772640,,248,,1722883553,368705511,"""SparkFun GPS GGA""","""GGA""",1722883553.0,400000.0,40.86271299333333,-77.83368942166666,335.015,-34.454,4,12,0.53,0.4,6,"""PSU_TestTrack"""
1722883553474031957,,249,,1722883553,472817897,"""SparkFun GPS GGA""","""GGA""",1722883553.0,500000.0,40.862715745,-77.83368506166667,334.99899999999997,-34.454,4,12,0.53,0.5,6,"""PSU_TestTrack"""
1722883553566513805,,250,,1722883553,565555810,"""SparkFun GPS GGA""","""GGA""",1722883553.0,600000.0,40.86271824333333,-77.83368041166666,334.984,-34.454,4,12,0.53,0.6,6,"""PSU_TestTrack"""
1722883553671993493,,251,,1722883553,671297311,"""SparkFun GPS GGA""","""GGA""",1722883553.0,700000.0,40.86272082333333,-77.833675615,334.991,-34.454,4,12,0.53,0.7,6,"""PSU_TestTrack"""
1722883553763572239,,252,,1722883553,762805223,"""SparkFun GPS GGA""","""GGA""",1722883553.0,800000.0,40.86272331833333,-77.833670915,335.002,-34.454,4,12,0.53,0.8,6,"""PSU_TestTrack"""
1722883553854470825,,253,,1722883553,853663921,"""SparkFun GPS GGA""","""GGA""",1722883553.0,900000.0,40.862725945,-77.83366626333333,335.009,-34.454,4,12,0.53,0.9,6,"""PSU_TestTrack"""
1722883553987533952,,254,,1722883553,986961841,"""SparkFun GPS GGA""","""GGA""",1722883554.0,0.0,40.862728786666665,-77.83366159666667,335.016,-34.454,4,12,0.53,1.0,6,"""PSU_TestTrack"""
1722883554177263226,,255,,1722883554,176204204,"""SparkFun GPS GGA""","""GGA""",1722883554.0,200000.0,40.86273464833333,-77.83365257333334,334.992,-34.454,4,12,0.53,0.2,6,"""PSU_TestTrack"""
1722883554270830823,,256,,1722883554,269662857,"""SparkFun GPS GGA""","""GGA""",1722883554.0,300000.0,40.86273731666667,-77.83364786333334,334.984,-34.454,4,12,0.53,0.3,6,"""PSU_TestTrack"""
1722883554366392135,,257,,1722883554,365857839,"""SparkFun GPS GGA""","""GGA""",1722883554.0,400000.0,40.862739981666664,-77.83364299666667,334.995,-34.454,4,12,0.53,0.4,6,"""PSU_TestTrack"""
1722883554462937350,,258,,1722883554,462462663,"""SparkFun GPS GGA""","""GGA""",1722883554.0,500000.0,40.86274263666667,-77.833638025,335.019,-34.454,4,12,0.53,0.5,6,"""PSU_TestTrack"""
1722883554568680024,,259,,1722883554,566092252,"""SparkFun GPS GGA""","""GGA""",1722883554.0,600000.0,40.86274537166667,-77.833632915,335.051,-34.454,4,12,0.53,0.6,6,"""PSU_TestTrack"""
1722883554670047880,,260,,1722883554,669560909,"""SparkFun GPS GGA""","""GGA""",1722883554.0,700000.0,40.862748225,-77.83362833333334,335.024,-34.454,4,12,0.53,0.7,6,"""PSU_TestTrack"""
1722883554752542962,,261,,1722883554,752030372,"""SparkFun GPS GGA""","""GGA""",1722883554.0,800000.0,40.86275119333333,-77.83362372833334,335.001,-34.454,4,12,0.53,0.8,6,"""PSU_TestTrack"""
1722883554864982917,,262,,1722883554,864156007,"""SparkFun GPS GGA""","""GGA""",1722883554.0,900000.0,40.862754108333334,-77.83361888333333,335.001,-34.454,4,12,0.53,0.9,6,"""PSU_TestTrack"""
1722883554969695238,,263,,1722883554,968760728,"""SparkFun GPS GGA""","""GGA""",1722883555.0,0.0,40.862757028333334,-77.83361386166666,335.017,-34.454,4,12,0.53,1.0,6,"""PSU_TestTrack"""
1722883555064348836,,264,,1722883555,63798189,"""SparkFun GPS GGA""","""GGA""",1722883555.0,100000.0,40.862759903333334,-77.83360878,335.037,-34.454,4,12,0.53,1.1,6,"""PSU_TestTrack"""
1722883555164787959,,265,,1722883555,164081096,"""SparkFun GPS GGA""","""GGA""",1722883555.0,200000.0,40.86276269,-77.833603745,335.02,-34.454,4,12,0.53,1.2,6,"""PSU_TestTrack"""
1722883555259825977,,266,,1722883555,259123086,"""SparkFun GPS GGA""","""GGA""",1722883555.0,300000.0,40.86276576,-77.833598805,335.017,-34.454,4,12,0.53,1.3,6,"""PSU_TestTrack"""
1722883555360270134,,267,,1722883555,359088420,"""SparkFun GPS GGA""","""GGA""",1722883555.0,400000.0,40.86276878,-77.833593625,335.044,-34.454,4,12,0.53,1.4,6,"""PSU_TestTrack"""
1722883555465255976,,268,,1722883555,464725971,"""SparkFun GPS GGA""","""GGA""",1722883555.0,500000.0,40.86277185,-77.83358851333334,335.04699999999997,-34.454,4,12,0.53,1.5,6,"""PSU_TestTrack"""
1722883555562802744,,269,,1722883555,562146663,"""SparkFun GPS GGA""","""GGA""",1722883555.0,600000.0,40.86277489,-77.83358337666667,335.05,-34.454,4,12,0.53,0.6,6,"""PSU_TestTrack"""
1722883555655787093,,270,,1722883555,655355930,"""SparkFun GPS GGA""","""GGA""",1722883555.0,700000.0,40.8627778,-77.83357814833333,335.046,-34.454,4,12,0.53,0.7,6,"""PSU_TestTrack"""
1722883555755980239,,271,,1722883555,755614042,"""SparkFun GPS GGA""","""GGA""",1722883555.0,800000.0,40.86278085833333,-77.83357284,335.041,-34.454,4,12,0.53,0.8,6,"""PSU_TestTrack"""
1722883555859479798,,272,,1722883555,859064817,"""SparkFun GPS GGA""","""GGA""",1722883555.0,900000.0,40.862783955,-77.83356751333334,335.043,-34.454,4,12,0.53,0.9,6,"""PSU_TestTrack"""
1722883555964553710,,273,,1722883555,964002609,"""SparkFun GPS GGA""","""GGA""",1722883556.0,0.0,40.862786983333336,-77.83356213666667,335.041,-34.454,4,12,0.53,1.0,6,"""PSU_TestTrack"""
1722883556073192616,,274,,1722883556,72090625,"""SparkFun GPS GGA""","""GGA""",1722883556.0,100000.0,40.86279012333333,-77.83355675,335.038,-34.454,4,12,0.53,1.1,6,"""PSU_TestTrack"""
1722883556158168515,,275,,1722883556,157614707,"""SparkFun GPS GGA""","""GGA""",1722883556.0,200000.0,40.86279330166667,-77.83355129833333,335.045,-34.454,4,12,0.53,1.2,6,"""PSU_TestTrack"""
1722883556259555250,,276,,1722883556,259096145,"""SparkFun GPS GGA""","""GGA""",1722883556.0,300000.0,40.86279645,-77.83354579,335.044,-34.454,4,12,0.53,1.3,6,"""PSU_TestTrack"""
1722883556361516556,,277,,1722883556,361085414,"""SparkFun GPS GGA""","""GGA""",1722883556.0,400000.0,40.862799683333336,-77.83354027,335.048,-34.454,4,12,0.53,1.4,6,"""PSU_TestTrack"""
1722883556460819374,,278,,1722883556,460465431,"""SparkFun GPS GGA""","""GGA""",1722883556.0,500000.0,40.86280289333333,-77.83353465,335.05,-34.454,4,12,0.53,1.5,6,"""PSU_TestTrack"""
1722883556553696433,,279,,1722883556,553079843,"""SparkFun GPS GGA""","""GGA""",1722883556.0,600000.0,40.86280620833333,-77.83352900333334,335.05199999999996,-34.454,4,12,0.53,1.6,6,"""PSU_TestTrack"""
1722883556673651221,,280,,1722883556,672618865,"""SparkFun GPS GGA""","""GGA""",1722883556.0,700000.0,40.862809475,-77.83352327833333,335.046,-34.454,4,12,0.53,1.7,6,"""PSU_TestTrack"""
1722883556765718928,,281,,1722883556,765216588,"""SparkFun GPS GGA""","""GGA""",1722883556.0,800000.0,40.86281285166667,-77.83351744833334,335.056,-34.454,4,12,0.53,0.8,6,"""PSU_TestTrack"""
1722883556861213881,,282,,1722883556,860505819,"""SparkFun GPS GGA""","""GGA""",1722883556.0,900000.0,40.862816263333336,-77.83351156333333,335.054,-34.454,4,12,0.53,0.9,6,"""PSU_TestTrack"""
1722883556970616034,,283,,1722883556,969197988,"""SparkFun GPS GGA""","""GGA""",1722883557.0,0.0,40.86281976,-77.83350563333333,335.06,-34.454,4,12,0.53,1.0,6,"""PSU_TestTrack"""
1722883557067498843,,284,,1722883557,67106246,"""SparkFun GPS GGA""","""GGA""",1722883557.0,100000.0,40.86282320666667,-77.83349950666667,335.056,-34.454,4,12,0.53,1.1,6,"""PSU_TestTrack"""
1722883557163297356,,285,,1722883557,162305593,"""SparkFun GPS GGA""","""GGA""",1722883557.0,200000.0,40.862826758333334,-77.833493355,335.054,-34.454,4,12,0.53,1.2,6,"""PSU_TestTrack"""
1722883557260299222,,286,,1722883557,259870529,"""SparkFun GPS GGA""","""GGA""",1722883557.0,300000.0,40.86283038333333,-77.833487075,335.05899999999997,-34.454,4,12,0.53,0.3,6,"""PSU_TestTrack"""
1722883557363604131,,287,,1722883557,362970113,"""SparkFun GPS GGA""","""GGA""",1722883557.0,400000.0,40.862834013333334,-77.83348069666667,335.05899999999997,-34.454,4,12,0.53,0.4,6,"""PSU_TestTrack"""
1722883557452608151,,288,,1722883557,451893806,"""SparkFun GPS GGA""","""GGA""",1722883557.0,500000.0,40.862837756666664,-77.83347424833333,335.063,-34.454,4,12,0.53,0.5,6,"""PSU_TestTrack"""
1722883557562997581,,289,,1722883557,561156034,"""SparkFun GPS GGA""","""GGA""",1722883557.0,600000.0,40.86284152166667,-77.83346769666667,335.068,-34.454,4,12,0.53,0.6,6,"""PSU_TestTrack"""
1722883557666068812,,290,,1722883557,665445804,"""SparkFun GPS GGA""","""GGA""",1722883557.0,700000.0,40.862845375,-77.83346110333333,335.075,-34.454,4,12,0.54,0.7,6,"""PSU_TestTrack"""
1722883557760877794,,291,,1722883557,760273218,"""SparkFun GPS GGA""","""GGA""",1722883557.0,800000.0,40.8628493,-77.833454415,335.081,-34.454,4,12,0.53,0.8,6,"""PSU_TestTrack"""
1722883557860981884,,292,,1722883557,860299110,"""SparkFun GPS GGA""","""GGA""",1722883557.0,900000.0,40.86285322166667,-77.83344763666666,335.085,-34.454,4,12,0.53,0.9,6,"""PSU_TestTrack"""
1722883557977684369,,293,,1722883557,976841926,"""SparkFun GPS GGA""","""GGA""",1722883558.0,0.0,40.86285716333333,-77.83344075,335.081,-34.454,4,12,0.53,1.0,6,"""PSU_TestTrack"""
1722883558063070399,,294,,1722883558,62329530,"""SparkFun GPS GGA""","""GGA""",1722883558.0,100000.0,40.86286120166667,-77.833433845,335.08,-34.454,4,12,0.53,1.1,6,"""PSU_TestTrack"""
1722883558174162991,,295,,1722883558,173627614,"""SparkFun GPS GGA""","""GGA""",1722883558.0,200000.0,40.86286531,-77.83342685166667,335.082,-34.454,4,12,0.53,1.2,6,"""PSU_TestTrack"""
1722883558263476712,,296,,1722883558,262877225,"""SparkFun GPS GGA""","""GGA""",1722883558.0,300000.0,40.862869475,-77.83341980166666,335.08799999999997,-34.454,4,12,0.53,0.3,6,"""PSU_TestTrack"""
1722883558355792702,,297,,1722883558,354560136,"""SparkFun GPS GGA""","""GGA""",1722883558.0,400000.0,40.86287365,-77.83341261833333,335.087,-34.454,4,12,0.53,0.4,6,"""PSU_TestTrack"""
1722883558461065661,,298,,1722883558,460386037,"""SparkFun GPS GGA""","""GGA""",1722883558.0,500000.0,40.862877865,-77.83340542833334,335.08799999999997,-34.454,4,12,0.53,0.5,6,"""PSU_TestTrack"""
1722883558560864019,,299,,1722883558,560349941,"""SparkFun GPS GGA""","""GGA""",1722883558.0,600000.0,40.86288214166667,-77.833398095,335.08799999999997,-34.454,4,12,0.53,0.6,6,"""PSU_TestTrack"""
1722883558666326249,,300,,1722883558,665788888,"""SparkFun GPS GGA""","""GGA""",1722883558.0,700000.0,40.86288650833333,-77.83339074666667,335.08799999999997,-34.454,4,12,0.53,0.7,6,"""PSU_TestTrack"""
1722883558761387400,,301,,1722883558,760306358,"""SparkFun GPS GGA""","""GGA""",1722883558.0,800000.0,40.86289087,-77.83338326833334,335.08799999999997,-34.454,4,12,0.53,0.8,6,"""PSU_TestTrack"""
1722883558860135165,,302,,1722883558,859773159,"""SparkFun GPS GGA""","""GGA""",1722883558.0,900000.0,40.86289529333333,-77.83337571166666,335.097,-34.454,4,12,0.53,0.9,6,"""PSU_TestTrack"""
1722883558970386853,,303,,1722883558,969507932,"""SparkFun GPS GGA""","""GGA""",1722883559.0,0.0,40.862899793333334,-77.83336801333333,335.106,-34.454,4,12,0.53,1.0,6,"""PSU_TestTrack"""
1722883559063209595,,304,,1722883559,62738180,"""SparkFun GPS GGA""","""GGA""",1722883559.0,100000.0,40.86290427833333,-77.83336015833333,335.118,-34.454,4,12,0.53,1.1,6,"""PSU_TestTrack"""
1722883559167639727,,305,,1722883559,166989803,"""SparkFun GPS GGA""","""GGA""",1722883559.0,200000.0,40.86290887,-77.83335230166666,335.126,-34.454,4,12,0.53,1.2,6,"""PSU_TestTrack"""
1722883559256628987,,306,,1722883559,256145238,"""SparkFun GPS GGA""","""GGA""",1722883559.0,300000.0,40.86291340166667,-77.83334458333333,335.122,-34.454,4,12,0.53,1.3,6,"""PSU_TestTrack"""
1722883559361865908,,307,,1722883559,360978841,"""SparkFun GPS GGA""","""GGA""",1722883559.0,400000.0,40.86291799666667,-77.83333682333334,335.104,-34.454,4,12,0.53,0.4,6,"""PSU_TestTrack"""
1722883559466258471,,308,,1722883559,465938329,"""SparkFun GPS GGA""","""GGA""",1722883559.0,500000.0,40.86292246166666,-77.83332893,335.079,-34.454,4,12,0.53,0.5,6,"""PSU_TestTrack"""
1722883559564563040,,309,,1722883559,563850164,"""SparkFun GPS GGA""","""GGA""",1722883559.0,600000.0,40.862927165,-77.833320935,335.05899999999997,-34.454,4,12,0.53,0.6,6,"""PSU_TestTrack"""
1722883559668669018,,310,,1722883559,667824268,"""SparkFun GPS GGA""","""GGA""",1722883559.0,700000.0,40.862931985,-77.83331270333333,335.087,-34.454,4,12,0.53,0.7,6,"""PSU_TestTrack"""
1722883559767390432,,311,,1722883559,766818761,"""SparkFun GPS GGA""","""GGA""",1722883559.0,800000.0,40.86293686,-77.8333044,335.12399999999997,-34.454,4,12,0.53,0.8,6,"""PSU_TestTrack"""
1722883559869233722,,312,,1722883559,868649005,"""SparkFun GPS GGA""","""GGA""",1722883559.0,900000.0,40.862941723333336,-77.83329616833333,335.143,-34.454,4,12,0.53,0.9,6,"""PSU_TestTrack"""
1722883559994659731,,313,,1722883559,994138002,"""SparkFun GPS GGA""","""GGA""",1722883560.0,0.0,40.86294659666667,-77.83328795833333,335.141,-34.454,4,12,0.53,1.0,6,"""PSU_TestTrack"""
1722883560168592054,,314,,1722883560,167739391,"""SparkFun GPS GGA""","""GGA""",1722883560.0,200000.0,40.862956305,-77.833271245,335.123,-34.454,4,12,0.53,1.2,6,"""PSU_TestTrack"""
