rosbagTimestamp,header,seq,stamp,secs,nsecs,frame_id,MessageID,GPSSecs,GPSMicroSecs,Latitude,Longitude,Altitude,GeoSep,NavMode,NumOfSats,HDOP,AgeOfDiff,LockStatus,BaseStationID
1722883527676450952,,1,,1722883527,661424398,"""SparkFun GPS GGA""","""GGA""",1722883527.0,700000.0,40.86229178,-77.83654399166667,331.073,-34.454,2,12,0.53,0.7,2,"""PSU_TestTrack"""
1722883527758397620,,2,,1722883527,757663249,"""SparkFun GPS GGA""","""GGA""",1722883527.0,800000.0,40.862286895,-77.83653370666667,331.081,-34.454,2,12,0.53,0.8,2,"""PSU_TestTrack"""
1722883527861983091,,3,,1722883527,859357833,"""SparkFun GPS GGA""","""GGA""",1722883527.0,900000.0,40.862282055,-77.83652330333334,331.08799999999997,-34.454,2,12,0.53,0.9,2,"""PSU_TestTrack"""
1722883527968048205,,4,,1722883527,967064619,"""SparkFun GPS GGA""","""GGA""",1722883528.0,0.0,40.86227726166667,-77.836512815,331.09999999999997,-34.454,2,12,0.53,1.0,2,"""PSU_TestTrack"""
1722883528060769222,,5,,1722883528,60229539,"""SparkFun GPS GGA""","""GGA""",1722883528.0,100000.0,40.862269508333334,-77.836499955,334.13599999999997,-34.454,4,12,0.53,1.1,6,"""PSU_TestTrack"""
1722883528160990325,,6,,1722883528,160171508,"""SparkFun GPS GGA""","""GGA""",1722883528.0,200000.0,40.86226482666667,-77.83648965,334.142,-34.454,4,12,0.53,1.2,6,"""PSU_TestTrack"""
1722883528268722365,,7,,1722883528,268234968,"""SparkFun GPS GGA""","""GGA""",1722883528.0,300000.0,40.86226021666667,-77.83647921166667,334.142,-34.454,4,12,0.53,0.3,6,"""PSU_TestTrack"""
1722883528359262296,,8,,1722883528,358608722,"""SparkFun GPS GGA""","""GGA""",1722883528.0,400000.0,40.86225559333333,-77.83646871666667,334.137,-34.454,4,12,0.53,0.4,6,"""PSU_TestTrack"""
1722883528461477733,,9,,1722883528,460318803,"""SparkFun GPS GGA""","""GGA""",1722883528.0,500000.0,40.86225099333333,-77.83645815166666,334.134,-34.454,4,12,0.53,0.5,6,"""PSU_TestTrack"""
1722883528552244284,,10,,1722883528,551637649,"""SparkFun GPS GGA""","""GGA""",1722883528.0,600000.0,40.86224644,-77.83644745,334.133,-34.454,4,12,0.53,0.6,6,"""PSU_TestTrack"""
1722883528662014717,,11,,1722883528,660844564,"""SparkFun GPS GGA""","""GGA""",1722883528.0,700000.0,40.862241893333334,-77.83643669,334.13,-34.454,4,12,0.53,0.7,6,"""PSU_TestTrack"""
1722883528760873770,,12,,1722883528,760381698,"""SparkFun GPS GGA""","""GGA""",1722883528.0,800000.0,40.862237371666666,-77.83642581833334,334.133,-34.454,4,12,0.53,0.8,6,"""PSU_TestTrack"""
1722883528857636623,,13,,1722883528,857244968,"""SparkFun GPS GGA""","""GGA""",1722883528.0,900000.0,40.862232935,-77.83641485166666,334.135,-34.454,4,12,0.53,0.9,6,"""PSU_TestTrack"""
1722883528968561434,,14,,1722883528,967688798,"""SparkFun GPS GGA""","""GGA""",1722883529.0,0.0,40.862228501666664,-77.83640379166667,334.134,-34.454,4,12,0.53,1.0,6,"""PSU_TestTrack"""
1722883529064954489,,15,,1722883529,64099550,"""SparkFun GPS GGA""","""GGA""",1722883529.0,100000.0,40.86222407333333,-77.83639262333334,334.14,-34.454,4,12,0.53,1.1,6,"""PSU_TestTrack"""
1722883529170527402,,16,,1722883529,170016050,"""SparkFun GPS GGA""","""GGA""",1722883529.0,200000.0,40.862219718333336,-77.836381335,334.149,-34.454,4,12,0.53,0.2,6,"""PSU_TestTrack"""
1722883529258260040,,17,,1722883529,257931470,"""SparkFun GPS GGA""","""GGA""",1722883529.0,300000.0,40.86221532333333,-77.83636996666667,334.154,-34.454,4,12,0.53,0.3,6,"""PSU_TestTrack"""
1722883529360875300,,18,,1722883529,360090255,"""SparkFun GPS GGA""","""GGA""",1722883529.0,400000.0,40.86221099,-77.836358505,334.15999999999997,-34.454,4,12,0.53,0.4,6,"""PSU_TestTrack"""
1722883529453841956,,19,,1722883529,452708721,"""SparkFun GPS GGA""","""GGA""",1722883529.0,500000.0,40.862206735,-77.83634697,334.158,-34.454,4,12,0.53,0.5,6,"""PSU_TestTrack"""
1722883529559498042,,20,,1722883529,558399915,"""SparkFun GPS GGA""","""GGA""",1722883529.0,600000.0,40.862202483333334,-77.83633541,334.151,-34.454,4,12,0.53,0.6,6,"""PSU_TestTrack"""
1722883529660431705,,21,,1722883529,659840106,"""SparkFun GPS GGA""","""GGA""",1722883529.0,700000.0,40.86219826166667,-77.83632368666666,334.147,-34.454,4,12,0.53,0.7,6,"""PSU_TestTrack"""
1722883529758637535,,22,,1722883529,757563829,"""SparkFun GPS GGA""","""GGA""",1722883529.0,800000.0,40.86219406166666,-77.83631186666666,334.156,-34.454,4,12,0.53,0.8,6,"""PSU_TestTrack"""
1722883529857828167,,23,,1722883529,857295513,"""SparkFun GPS GGA""","""GGA""",1722883529.0,900000.0,40.862189915,-77.83629987833334,334.167,-34.454,4,12,0.53,0.9,6,"""PSU_TestTrack"""
1722883529966347262,,24,,1722883529,965454578,"""SparkFun GPS GGA""","""GGA""",1722883530.0,0.0,40.86218578333333,-77.83628784833333,334.173,-34.454,4,12,0.53,1.0,6,"""PSU_TestTrack"""
1722883530060443571,,25,,1722883530,59576511,"""SparkFun GPS GGA""","""GGA""",1722883530.0,100000.0,40.86218168166667,-77.83627577333333,334.173,-34.454,4,12,0.53,1.1,6,"""PSU_TestTrack"""
1722883530171604603,,26,,1722883530,170964717,"""SparkFun GPS GGA""","""GGA""",1722883530.0,200000.0,40.862177645,-77.83626364833333,334.167,-34.454,4,12,0.53,0.2,6,"""PSU_TestTrack"""
1722883530259371912,,27,,1722883530,258596897,"""SparkFun GPS GGA""","""GGA""",1722883530.0,300000.0,40.862173651666666,-77.83625145833334,334.15999999999997,-34.454,4,12,0.53,0.3,6,"""PSU_TestTrack"""
1722883530351281112,,28,,1722883530,350517511,"""SparkFun GPS GGA""","""GGA""",1722883530.0,400000.0,40.86216970666667,-77.83623917333334,334.159,-34.454,4,12,0.53,0.4,6,"""PSU_TestTrack"""
1722883530457157252,,29,,1722883530,456706762,"""SparkFun GPS GGA""","""GGA""",1722883530.0,500000.0,40.862165856666664,-77.83622678833333,334.171,-34.454,4,12,0.53,0.5,6,"""PSU_TestTrack"""
1722883530559158069,,30,,1722883530,558315515,"""SparkFun GPS GGA""","""GGA""",1722883530.0,600000.0,40.862162043333335,-77.83621439,334.178,-34.454,4,12,0.53,0.6,6,"""PSU_TestTrack"""
1722883530660559686,,31,,1722883530,659362554,"""SparkFun GPS GGA""","""GGA""",1722883530.0,700000.0,40.862158308333335,-77.83620197666667,334.183,-34.454,4,12,0.53,0.7,6,"""PSU_TestTrack"""
1722883530757320647,,32,,1722883530,756961345,"""SparkFun GPS GGA""","""GGA""",1722883530.0,800000.0,40.86215463166667,-77.83618949,334.183,-34.454,4,12,0.53,0.8,6,"""PSU_TestTrack"""
1722883530859784951,,33,,1722883530,859125852,"""SparkFun GPS GGA""","""GGA""",1722883530.0,900000.0,40.86215103833333,-77.83617694333333,334.188,-34.454,4,12,0.53,0.9,6,"""PSU_TestTrack"""
1722883530966842057,,34,,1722883530,966109752,"""SparkFun GPS GGA""","""GGA""",1722883531.0,0.0,40.862147506666666,-77.836164395,334.19599999999997,-34.454,4,12,0.53,1.0,6,"""PSU_TestTrack"""
1722883531063786841,,35,,1722883531,62922239,"""SparkFun GPS GGA""","""GGA""",1722883531.0,100000.0,40.86214407166667,-77.836151815,334.202,-34.454,4,12,0.53,1.1,6,"""PSU_TestTrack"""
1722883531160806033,,36,,1722883531,159867286,"""SparkFun GPS GGA""","""GGA""",1722883531.0,200000.0,40.8621407,-77.83613924666666,334.20099999999996,-34.454,4,12,0.53,1.2,6,"""PSU_TestTrack"""
1722883531252110798,,37,,1722883531,251310586,"""SparkFun GPS GGA""","""GGA""",1722883531.0,300000.0,40.862137405,-77.83612664,334.202,-34.454,4,12,0.53,1.3,6,"""PSU_TestTrack"""
1722883531359434257,,38,,1722883531,358529090,"""SparkFun GPS GGA""","""GGA""",1722883531.0,400000.0,40.86213418,-77.83611402,334.203,-34.454,4,12,0.53,1.4,6,"""PSU_TestTrack"""
1722883531461486527,,39,,1722883531,460764169,"""SparkFun GPS GGA""","""GGA""",1722883531.0,500000.0,40.86213100333333,-77.83610135666666,334.206,-34.454,4,12,0.53,1.5,6,"""PSU_TestTrack"""
1722883531567734067,,40,,1722883531,567286729,"""SparkFun GPS GGA""","""GGA""",1722883531.0,600000.0,40.862127918333336,-77.836088735,334.21,-34.454,4,12,0.53,0.6,6,"""PSU_TestTrack"""
1722883531662524007,,41,,1722883531,661060571,"""SparkFun GPS GGA""","""GGA""",1722883531.0,700000.0,40.86212492333333,-77.83607614333333,334.207,-34.454,4,12,0.53,0.7,6,"""PSU_TestTrack"""
1722883531762589515,,42,,1722883531,761463880,"""SparkFun GPS GGA""","""GGA""",1722883531.0,800000.0,40.86212199,-77.83606347833333,334.206,-34.454,4,12,0.53,0.8,6,"""PSU_TestTrack"""
1722883531858471736,,43,,1722883531,857723236,"""SparkFun GPS GGA""","""GGA""",1722883531.0,900000.0,40.86211914,-77.83605078333333,334.211,-34.454,4,12,0.53,0.9,6,"""PSU_TestTrack"""
1722883531967356372,,44,,1722883531,966089248,"""SparkFun GPS GGA""","""GGA""",1722883532.0,0.0,40.862116361666665,-77.83603807333333,334.221,-34.454,4,12,0.53,1.0,6,"""PSU_TestTrack"""
1722883532063856690,,45,,1722883532,63223838,"""SparkFun GPS GGA""","""GGA""",1722883532.0,100000.0,40.86211364,-77.836025435,334.217,-34.454,4,12,0.53,1.1,6,"""PSU_TestTrack"""
1722883532153022252,,46,,1722883532,152164936,"""SparkFun GPS GGA""","""GGA""",1722883532.0,200000.0,40.86211097,-77.836012745,334.219,-34.454,4,12,0.53,1.2,6,"""PSU_TestTrack"""
1722883532261591944,,47,,1722883532,260254144,"""SparkFun GPS GGA""","""GGA""",1722883532.0,300000.0,40.86210838833333,-77.835999985,334.226,-34.454,4,12,0.53,1.3,6,"""PSU_TestTrack"""
1722883532359990664,,48,,1722883532,359052181,"""SparkFun GPS GGA""","""GGA""",1722883532.0,400000.0,40.86210586833333,-77.83598723166666,334.233,-34.454,4,12,0.53,1.4,6,"""PSU_TestTrack"""
1722883532468820819,,49,,1722883532,468214511,"""SparkFun GPS GGA""","""GGA""",1722883532.0,500000.0,40.862103425,-77.83597450333333,334.236,-34.454,4,12,0.53,0.5,6,"""PSU_TestTrack"""
1722883532558369856,,50,,1722883532,557409048,"""SparkFun GPS GGA""","""GGA""",1722883532.0,600000.0,40.86210105166667,-77.83596176166667,334.236,-34.454,4,12,0.53,0.6,6,"""PSU_TestTrack"""
1722883532657765970,,51,,1722883532,657344102,"""SparkFun GPS GGA""","""GGA""",1722883532.0,700000.0,40.862098725,-77.83594901166667,334.236,-34.454,4,12,0.53,0.7,6,"""PSU_TestTrack"""
1722883532758210044,,52,,1722883532,757149934,"""SparkFun GPS GGA""","""GGA""",1722883532.0,800000.0,40.862096453333336,-77.83593628,334.23199999999997,-34.454,4,12,0.53,0.8,6,"""PSU_TestTrack"""
1722883532856715711,,53,,1722883532,855566024,"""SparkFun GPS GGA""","""GGA""",1722883532.0,900000.0,40.862094246666665,-77.83592351666667,334.23,-34.454,4,12,0.53,0.9,6,"""PSU_TestTrack"""
1722883532965640081,,54,,1722883532,964535474,"""SparkFun GPS GGA""","""GGA""",1722883533.0,0.0,40.862092108333336,-77.83591074333333,334.23199999999997,-34.454,4,12,0.53,1.0,6,"""PSU_TestTrack"""
1722883533050085172,,55,,1722883533,49012660,"""SparkFun GPS GGA""","""GGA""",1722883533.0,100000.0,40.862090015,-77.83589791666667,334.238,-34.454,4,12,0.53,1.1,6,"""PSU_TestTrack"""
1722883533157733875,,56,,1722883533,156816959,"""SparkFun GPS GGA""","""GGA""",1722883533.0,200000.0,40.86208794833333,-77.83588508,334.245,-34.454,4,12,0.53,1.2,6,"""PSU_TestTrack"""
1722883533257214863,,57,,1722883533,256645441,"""SparkFun GPS GGA""","""GGA""",1722883533.0,300000.0,40.862085973333336,-77.835872195,334.252,-34.454,4,12,0.53,1.3,6,"""PSU_TestTrack"""
1722883533368859131,,58,,1722883533,367835044,"""SparkFun GPS GGA""","""GGA""",1722883533.0,400000.0,40.86208403333333,-77.83585929666667,334.255,-34.454,4,12,0.53,0.4,6,"""PSU_TestTrack"""
1722883533456730487,,59,,1722883533,455653667,"""SparkFun GPS GGA""","""GGA""",1722883533.0,500000.0,40.862082136666665,-77.83584639666667,334.258,-34.454,4,12,0.53,0.5,6,"""PSU_TestTrack"""
1722883533557249916,,60,,1722883533,556232452,"""SparkFun GPS GGA""","""GGA""",1722883533.0,600000.0,40.862080305,-77.83583346333333,334.259,-34.454,4,12,0.53,0.6,6,"""PSU_TestTrack"""
1722883533657188236,,61,,1722883533,656345367,"""SparkFun GPS GGA""","""GGA""",1722883533.0,700000.0,40.86207856833333,-77.83582051166667,334.258,-34.454,4,12,0.53,0.7,6,"""PSU_TestTrack"""
1722883533757533445,,62,,1722883533,756453037,"""SparkFun GPS GGA""","""GGA""",1722883533.0,800000.0,40.862076875,-77.83580751666666,334.262,-34.454,4,12,0.53,0.8,6,"""PSU_TestTrack"""
1722883533855801615,,63,,1722883533,855400085,"""SparkFun GPS GGA""","""GGA""",1722883533.0,900000.0,40.862075303333334,-77.835794455,334.269,-34.454,4,12,0.53,0.9,6,"""PSU_TestTrack"""
1722883533956939709,,64,,1722883533,956093549,"""SparkFun GPS GGA""","""GGA""",1722883534.0,0.0,40.86207375833333,-77.83578138833333,334.271,-34.454,4,12,0.53,1.0,6,"""PSU_TestTrack"""
1722883534057564358,,65,,1722883534,57076930,"""SparkFun GPS GGA""","""GGA""",1722883534.0,100000.0,40.862072295,-77.835768305,334.272,-34.454,4,12,0.53,1.1,6,"""PSU_TestTrack"""
1722883534157531682,,66,,1722883534,156841278,"""SparkFun GPS GGA""","""GGA""",1722883534.0,200000.0,40.86207091,-77.83575522666666,334.272,-34.454,4,12,0.53,1.2,6,"""PSU_TestTrack"""
1722883534259060673,,67,,1722883534,257776737,"""SparkFun GPS GGA""","""GGA""",1722883534.0,300000.0,40.86206956,-77.83574215,334.263,-34.454,4,12,0.53,1.3,6,"""PSU_TestTrack"""
1722883534371298702,,68,,1722883534,370053529,"""SparkFun GPS GGA""","""GGA""",1722883534.0,400000.0,40.86206829,-77.83572905666666,334.264,-34.454,4,12,0.53,0.4,6,"""PSU_TestTrack"""
1722883534456387545,,69,,1722883534,455901861,"""SparkFun GPS GGA""","""GGA""",1722883534.0,500000.0,40.862067126666666,-77.83571594666667,334.27,-34.454,4,12,0.53,0.5,6,"""PSU_TestTrack"""
1722883534556308787,,70,,1722883534,555351495,"""SparkFun GPS GGA""","""GGA""",1722883534.0,600000.0,40.86206601333333,-77.83570281833333,334.271,-34.454,4,12,0.53,0.6,6,"""PSU_TestTrack"""
1722883534656934546,,71,,1722883534,656386852,"""SparkFun GPS GGA""","""GGA""",1722883534.0,700000.0,40.86206486333333,-77.83568967166667,334.279,-34.454,4,12,0.53,0.7,6,"""PSU_TestTrack"""
1722883534758856453,,72,,1722883534,758021354,"""SparkFun GPS GGA""","""GGA""",1722883534.0,800000.0,40.86206379,-77.83567647166667,334.288,-34.454,4,12,0.53,0.8,6,"""PSU_TestTrack"""
1722883534849117242,,73,,1722883534,848455190,"""SparkFun GPS GGA""","""GGA""",1722883534.0,900000.0,40.862062715,-77.83566323833334,334.29699999999997,-34.454,4,12,0.53,0.9,6,"""PSU_TestTrack"""
1722883534963526381,,74,,1722883534,963094472,"""SparkFun GPS GGA""","""GGA""",1722883535.0,0.0,40.86206173666667,-77.83564996666667,334.308,-34.454,4,12,0.53,1.0,6,"""PSU_TestTrack"""
1722883535059825003,,75,,1722883535,59026002,"""SparkFun GPS GGA""","""GGA""",1722883535.0,100000.0,40.86206085333333,-77.835636715,334.313,-34.454,4,12,0.53,1.1,6,"""PSU_TestTrack"""
1722883535159592619,,76,,1722883535,158825159,"""SparkFun GPS GGA""","""GGA""",1722883535.0,200000.0,40.86206,-77.83562353,334.31399999999996,-34.454,4,12,0.53,1.2,6,"""PSU_TestTrack"""
1722883535267219706,,77,,1722883535,266400098,"""SparkFun GPS GGA""","""GGA""",1722883535.0,300000.0,40.86205923833333,-77.83561031833334,334.308,-34.454,4,12,0.53,0.3,6,"""PSU_TestTrack"""
1722883535356338717,,78,,1722883535,355612754,"""SparkFun GPS GGA""","""GGA""",1722883535.0,400000.0,40.86205853333333,-77.835597055,334.307,-34.454,4,12,0.53,0.4,6,"""PSU_TestTrack"""
1722883535454417888,,79,,1722883535,453946590,"""SparkFun GPS GGA""","""GGA""",1722883535.0,500000.0,40.86205788666667,-77.835583745,334.317,-34.454,4,12,0.53,0.5,6,"""PSU_TestTrack"""
1722883535558294014,,80,,1722883535,557087659,"""SparkFun GPS GGA""","""GGA""",1722883535.0,600000.0,40.862057295,-77.83557044833333,334.324,-34.454,4,12,0.53,0.6,6,"""PSU_TestTrack"""
1722883535658180059,,81,,1722883535,657450914,"""SparkFun GPS GGA""","""GGA""",1722883535.0,700000.0,40.86205672,-77.835557155,334.327,-34.454,4,12,0.53,0.7,6,"""PSU_TestTrack"""
1722883535749732751,,82,,1722883535,748872756,"""SparkFun GPS GGA""","""GGA""",1722883535.0,800000.0,40.86205624666667,-77.83554382,334.331,-34.454,4,12,0.53,0.8,6,"""PSU_TestTrack"""
1722883535854415924,,83,,1722883535,853607177,"""SparkFun GPS GGA""","""GGA""",1722883535.0,900000.0,40.862055855,-77.835530465,334.337,-34.454,4,12,0.53,0.9,6,"""PSU_TestTrack"""
1722883535965378808,,84,,1722883535,964018583,"""SparkFun GPS GGA""","""GGA""",1722883536.0,0.0,40.862055571666666,-77.83551712166667,334.343,-34.454,4,12,0.53,1.0,6,"""PSU_TestTrack"""
1722883536054546917,,85,,1722883536,54142713,"""SparkFun GPS GGA""","""GGA""",1722883536.0,100000.0,40.862055348333335,-77.83550377666667,334.346,-34.454,4,12,0.53,1.1,6,"""PSU_TestTrack"""
1722883536159134032,,86,,1722883536,158033847,"""SparkFun GPS GGA""","""GGA""",1722883536.0,200000.0,40.862055215,-77.835490415,334.349,-34.454,4,12,0.53,1.2,6,"""PSU_TestTrack"""
1722883536260529566,,87,,1722883536,259698152,"""SparkFun GPS GGA""","""GGA""",1722883536.0,300000.0,40.86205516166667,-77.83547701833334,334.355,-34.454,4,12,0.53,1.3,6,"""PSU_TestTrack"""
1722883536367584233,,88,,1722883536,366778612,"""SparkFun GPS GGA""","""GGA""",1722883536.0,400000.0,40.86205514833333,-77.83546361833334,334.36199999999997,-34.454,4,12,0.53,0.4,6,"""PSU_TestTrack"""
1722883536456395266,,89,,1722883536,455826997,"""SparkFun GPS GGA""","""GGA""",1722883536.0,500000.0,40.86205519333333,-77.83545023166667,334.365,-34.454,4,12,0.53,0.5,6,"""PSU_TestTrack"""
1722883536556972491,,90,,1722883536,556211709,"""SparkFun GPS GGA""","""GGA""",1722883536.0,600000.0,40.86205536166667,-77.83543683166667,334.36899999999997,-34.454,4,12,0.53,0.6,6,"""PSU_TestTrack"""
1722883536650437420,,91,,1722883536,649794340,"""SparkFun GPS GGA""","""GGA""",1722883536.0,700000.0,40.86205557,-77.83542342333334,334.368,-34.454,4,12,0.53,0.7,6,"""PSU_TestTrack"""
1722883536757259337,,92,,1722883536,756477117,"""SparkFun GPS GGA""","""GGA""",1722883536.0,800000.0,40.86205584,-77.83541003166667,334.367,-34.454,4,12,0.53,0.8,6,"""PSU_TestTrack"""
1722883536857477004,,93,,1722883536,856650590,"""SparkFun GPS GGA""","""GGA""",1722883536.0,900000.0,40.86205620166667,-77.83539665833334,334.365,-34.454,4,12,0.53,0.9,6,"""PSU_TestTrack"""
1722883536964596292,,94,,1722883536,963869094,"""SparkFun GPS GGA""","""GGA""",1722883537.0,0.0,40.862056595,-77.83538327333333,334.361,-34.454,4,12,0.53,1.0,6,"""PSU_TestTrack"""
1722883537058349220,,95,,1722883537,57820081,"""SparkFun GPS GGA""","""GGA""",1722883537.0,100000.0,40.86205707333333,-77.83536987833334,334.366,-34.454,4,12,0.53,1.1,6,"""PSU_TestTrack"""
1722883537157585147,,96,,1722883537,157027721,"""SparkFun GPS GGA""","""GGA""",1722883537.0,200000.0,40.86205761666667,-77.83535646833333,334.371,-34.454,4,12,0.53,1.2,6,"""PSU_TestTrack"""
1722883537257327824,,97,,1722883537,256311178,"""SparkFun GPS GGA""","""GGA""",1722883537.0,300000.0,40.86205822666667,-77.835343015,334.383,-34.454,4,12,0.53,1.3,6,"""PSU_TestTrack"""
1722883537357336063,,98,,1722883537,356620311,"""SparkFun GPS GGA""","""GGA""",1722883537.0,400000.0,40.86205889666667,-77.83532956833334,334.393,-34.454,4,12,0.53,1.4,6,"""PSU_TestTrack"""
1722883537457643151,,99,,1722883537,456616401,"""SparkFun GPS GGA""","""GGA""",1722883537.0,500000.0,40.86205961666667,-77.83531617333334,334.39799999999997,-34.454,4,12,0.53,1.5,6,"""PSU_TestTrack"""
1722883537548557489,,100,,1722883537,547918081,"""SparkFun GPS GGA""","""GGA""",1722883537.0,600000.0,40.862060408333335,-77.83530277333334,334.404,-34.454,4,12,0.53,1.6,6,"""PSU_TestTrack"""
1722883537668337067,,101,,1722883537,667822599,"""SparkFun GPS GGA""","""GGA""",1722883537.0,700000.0,40.86206128333333,-77.835289355,334.402,-34.454,4,12,0.53,0.7,6,"""PSU_TestTrack"""
1722883537758068507,,102,,1722883537,757192373,"""SparkFun GPS GGA""","""GGA""",1722883537.0,800000.0,40.86206219666666,-77.83527592166666,334.407,-34.454,4,12,0.53,0.8,6,"""PSU_TestTrack"""
1722883537854310256,,103,,1722883537,853763341,"""SparkFun GPS GGA""","""GGA""",1722883537.0,900000.0,40.86206318833333,-77.83526247,334.415,-34.454,4,12,0.53,0.9,6,"""PSU_TestTrack"""
1722883537963498323,,104,,1722883537,962632656,"""SparkFun GPS GGA""","""GGA""",1722883538.0,0.0,40.862064251666666,-77.83524907833333,334.42,-34.454,4,12,0.53,1.0,6,"""PSU_TestTrack"""
1722883538059129156,,105,,1722883538,58559656,"""SparkFun GPS GGA""","""GGA""",1722883538.0,100000.0,40.86206538333333,-77.835235645,334.423,-34.454,4,12,0.53,1.1,6,"""PSU_TestTrack"""
1722883538173974325,,106,,1722883538,173156261,"""SparkFun GPS GGA""","""GGA""",1722883538.0,200000.0,40.862066553333335,-77.83522220666667,334.423,-34.454,4,12,0.53,0.2,6,"""PSU_TestTrack"""
1722883538256683041,,107,,1722883538,255935668,"""SparkFun GPS GGA""","""GGA""",1722883538.0,300000.0,40.86206785,-77.83520882166667,334.425,-34.454,4,12,0.55,0.3,6,"""PSU_TestTrack"""
1722883538356679172,,108,,1722883538,355664014,"""SparkFun GPS GGA""","""GGA""",1722883538.0,400000.0,40.8620692,-77.83519545666667,334.425,-34.454,4,12,0.55,0.4,6,"""PSU_TestTrack"""
1722883538447803480,,109,,1722883538,447307109,"""SparkFun GPS GGA""","""GGA""",1722883538.0,500000.0,40.862070661666664,-77.83518213,334.426,-34.454,4,12,0.55,0.5,6,"""PSU_TestTrack"""
1722883538556785235,,110,,1722883538,555884838,"""SparkFun GPS GGA""","""GGA""",1722883538.0,600000.0,40.862072186666666,-77.83516877833334,334.425,-34.454,4,12,0.53,0.6,6,"""PSU_TestTrack"""
1722883538657007258,,111,,1722883538,656220912,"""SparkFun GPS GGA""","""GGA""",1722883538.0,700000.0,40.86207379,-77.83515538666667,334.437,-34.454,4,12,0.53,0.7,6,"""PSU_TestTrack"""
1722883538754755601,,112,,1722883538,754086494,"""SparkFun GPS GGA""","""GGA""",1722883538.0,800000.0,40.86207547833333,-77.83514198833333,334.45,-34.454,4,12,0.53,0.8,6,"""PSU_TestTrack"""
1722883538855155616,,113,,1722883538,854102373,"""SparkFun GPS GGA""","""GGA""",1722883538.0,900000.0,40.862077225,-77.83512863166666,334.46,-34.454,4,12,0.53,0.9,6,"""PSU_TestTrack"""
1722883538965676058,,114,,1722883538,964525938,"""SparkFun GPS GGA""","""GGA""",1722883539.0,0.0,40.86207905333333,-77.83511527333333,334.464,-34.454,4,12,0.53,1.0,6,"""PSU_TestTrack"""
1722883539053586914,,115,,1722883539,53208351,"""SparkFun GPS GGA""","""GGA""",1722883539.0,100000.0,40.862080963333334,-77.83510196166667,334.468,-34.454,4,12,0.53,1.1,6,"""PSU_TestTrack"""
1722883539155246233,,116,,1722883539,154744863,"""SparkFun GPS GGA""","""GGA""",1722883539.0,200000.0,40.862082928333336,-77.835088665,334.472,-34.454,4,12,0.53,1.2,6,"""PSU_TestTrack"""
1722883539255021223,,117,,1722883539,254487276,"""SparkFun GPS GGA""","""GGA""",1722883539.0,300000.0,40.862085001666664,-77.83507533166667,334.47499999999997,-34.454,4,12,0.53,1.3,6,"""PSU_TestTrack"""
1722883539348231172,,118,,1722883539,347572565,"""SparkFun GPS GGA""","""GGA""",1722883539.0,400000.0,40.86208716,-77.83506203666667,334.48,-34.454,4,12,0.53,1.4,6,"""PSU_TestTrack"""
1722883539455304690,,119,,1722883539,455024242,"""SparkFun GPS GGA""","""GGA""",1722883539.0,500000.0,40.862089368333336,-77.83504880166667,334.484,-34.454,4,12,0.55,1.5,6,"""PSU_TestTrack"""
1722883539564989138,,120,,1722883539,564479827,"""SparkFun GPS GGA""","""GGA""",1722883539.0,600000.0,40.862091665,-77.835035555,334.486,-34.454,4,12,0.55,0.6,6,"""PSU_TestTrack"""
1722883539655343879,,121,,1722883539,654306650,"""SparkFun GPS GGA""","""GGA""",1722883539.0,700000.0,40.862094023333334,-77.83502232333333,334.483,-34.454,4,12,0.55,0.7,6,"""PSU_TestTrack"""
1722883539755546382,,122,,1722883539,755028486,"""SparkFun GPS GGA""","""GGA""",1722883539.0,800000.0,40.862096441666665,-77.83500914833333,334.485,-34.454,4,12,0.53,0.8,6,"""PSU_TestTrack"""
1722883539856498283,,123,,1722883539,855680704,"""SparkFun GPS GGA""","""GGA""",1722883539.0,900000.0,40.86209896,-77.83499594666667,334.49,-34.454,4,12,0.53,0.9,6,"""PSU_TestTrack"""
1722883539961476660,,124,,1722883539,960806369,"""SparkFun GPS GGA""","""GGA""",1722883540.0,0.0,40.86210156166667,-77.83498274166666,334.498,-34.454,4,12,0.53,1.0,6,"""PSU_TestTrack"""
1722883540054557072,,125,,1722883540,53954839,"""SparkFun GPS GGA""","""GGA""",1722883540.0,100000.0,40.862104241666664,-77.83496962833334,334.507,-34.454,4,12,0.55,1.1,6,"""PSU_TestTrack"""
1722883540155054933,,126,,1722883540,154481887,"""SparkFun GPS GGA""","""GGA""",1722883540.0,200000.0,40.86210699666667,-77.83495648333333,334.513,-34.454,4,12,0.55,1.2,6,"""PSU_TestTrack"""
1722883540247493046,,127,,1722883540,246999263,"""SparkFun GPS GGA""","""GGA""",1722883540.0,300000.0,40.86210981833333,-77.83494336166666,334.519,-34.454,4,12,0.55,1.3,6,"""PSU_TestTrack"""
1722883540354407911,,128,,1722883540,353565931,"""SparkFun GPS GGA""","""GGA""",1722883540.0,400000.0,40.86211273833333,-77.83493025833333,334.528,-34.454,4,12,0.53,1.4,6,"""PSU_TestTrack"""
1722883540454803320,,129,,1722883540,454152345,"""SparkFun GPS GGA""","""GGA""",1722883540.0,500000.0,40.862115698333334,-77.83491719333334,334.53,-34.454,4,12,0.53,1.5,6,"""PSU_TestTrack"""
1722883540553339788,,130,,1722883540,552588462,"""SparkFun GPS GGA""","""GGA""",1722883540.0,600000.0,40.862118765,-77.834904125,334.534,-34.454,4,12,0.53,1.6,6,"""PSU_TestTrack"""
1722883540654813583,,131,,1722883540,654286384,"""SparkFun GPS GGA""","""GGA""",1722883540.0,700000.0,40.86212189,-77.83489111833333,334.539,-34.454,4,12,0.53,1.7,6,"""PSU_TestTrack"""
1722883540766576175,,132,,1722883540,765970230,"""SparkFun GPS GGA""","""GGA""",1722883540.0,800000.0,40.86212505333334,-77.83487805333333,334.532,-34.454,4,12,0.53,0.8,6,"""PSU_TestTrack"""
1722883540856096830,,133,,1722883540,855319261,"""SparkFun GPS GGA""","""GGA""",1722883540.0,900000.0,40.862128338333335,-77.83486513166666,334.533,-34.454,4,12,0.53,0.9,6,"""PSU_TestTrack"""
1722883540961010372,,134,,1722883540,960346460,"""SparkFun GPS GGA""","""GGA""",1722883541.0,0.0,40.862131665,-77.83485220833333,334.533,-34.454,4,12,0.55,1.0,6,"""PSU_TestTrack"""
1722883541056143275,,135,,1722883541,55348634,"""SparkFun GPS GGA""","""GGA""",1722883541.0,100000.0,40.862135075,-77.834839325,334.53,-34.454,4,12,0.55,1.1,6,"""PSU_TestTrack"""
1722883541147274416,,136,,1722883541,146483898,"""SparkFun GPS GGA""","""GGA""",1722883541.0,200000.0,40.862138558333335,-77.834826455,334.53,-34.454,4,12,0.55,1.2,6,"""PSU_TestTrack"""
1722883541254908372,,137,,1722883541,253735780,"""SparkFun GPS GGA""","""GGA""",1722883541.0,300000.0,40.86214214,-77.83481359166667,334.541,-34.454,4,12,0.55,1.3,6,"""PSU_TestTrack"""
1722883541352787143,,138,,1722883541,352264642,"""SparkFun GPS GGA""","""GGA""",1722883541.0,400000.0,40.86214581833333,-77.83480073,334.55199999999996,-34.454,4,12,0.55,1.4,6,"""PSU_TestTrack"""
1722883541451651511,,139,,1722883541,450866222,"""SparkFun GPS GGA""","""GGA""",1722883541.0,500000.0,40.862149503333335,-77.83478791333333,334.558,-34.454,4,12,0.55,1.5,6,"""PSU_TestTrack"""
1722883541562452218,,140,,1722883541,561872720,"""SparkFun GPS GGA""","""GGA""",1722883541.0,600000.0,40.86215333,-77.834775145,334.569,-34.454,4,12,0.55,0.6,6,"""PSU_TestTrack"""
1722883541654512851,,141,,1722883541,653998613,"""SparkFun GPS GGA""","""GGA""",1722883541.0,700000.0,40.8621571,-77.83476241,334.563,-34.454,4,12,0.55,0.7,6,"""PSU_TestTrack"""
1722883541751731473,,142,,1722883541,751003503,"""SparkFun GPS GGA""","""GGA""",1722883541.0,800000.0,40.86216099333333,-77.834749715,334.566,-34.454,4,12,0.53,0.8,6,"""PSU_TestTrack"""
1722883541851593488,,143,,1722883541,851191759,"""SparkFun GPS GGA""","""GGA""",1722883541.0,900000.0,40.86216492333333,-77.834737015,334.563,-34.454,4,12,0.53,0.9,6,"""PSU_TestTrack"""
1722883541960434416,,144,,1722883541,959192991,"""SparkFun GPS GGA""","""GGA""",1722883542.0,0.0,40.86216891,-77.83472431666667,334.569,-34.454,4,12,0.53,1.0,6,"""PSU_TestTrack"""
1722883542048509015,,145,,1722883542,47732830,"""SparkFun GPS GGA""","""GGA""",1722883542.0,100000.0,40.86217299,-77.83471168166666,334.57599999999996,-34.454,4,12,0.53,1.1,6,"""PSU_TestTrack"""
1722883542164668542,,146,,1722883542,163882017,"""SparkFun GPS GGA""","""GGA""",1722883542.0,200000.0,40.86217709833333,-77.834699085,334.57599999999996,-34.454,4,12,0.53,0.2,6,"""PSU_TestTrack"""
1722883542253272677,,147,,1722883542,252811193,"""SparkFun GPS GGA""","""GGA""",1722883542.0,300000.0,40.862181318333334,-77.83468655666667,334.579,-34.454,4,12,0.53,0.3,6,"""PSU_TestTrack"""
1722883542351507638,,148,,1722883542,351044893,"""SparkFun GPS GGA""","""GGA""",1722883542.0,400000.0,40.86218555666667,-77.83467404166667,334.58,-34.454,4,12,0.53,0.4,6,"""PSU_TestTrack"""
1722883542454674319,,149,,1722883542,454299926,"""SparkFun GPS GGA""","""GGA""",1722883542.0,500000.0,40.8621899,-77.83466154666667,334.58799999999997,-34.454,4,12,0.53,0.5,6,"""PSU_TestTrack"""
1722883542555376588,,150,,1722883542,554235696,"""SparkFun GPS GGA""","""GGA""",1722883542.0,600000.0,40.86219432833333,-77.83464908833334,334.59999999999997,-34.454,4,12,0.53,0.6,6,"""PSU_TestTrack"""
1722883542653064737,,151,,1722883542,652421236,"""SparkFun GPS GGA""","""GGA""",1722883542.0,700000.0,40.862198768333336,-77.83463666666667,334.609,-34.454,4,12,0.53,0.7,6,"""PSU_TestTrack"""
1722883542755200570,,152,,1722883542,754420995,"""SparkFun GPS GGA""","""GGA""",1722883542.0,800000.0,40.86220326833333,-77.834624355,334.613,-34.454,4,12,0.53,0.8,6,"""PSU_TestTrack"""
1722883542855401728,,153,,1722883542,854507446,"""SparkFun GPS GGA""","""GGA""",1722883542.0,900000.0,40.86220786166667,-77.83461199666667,334.622,-34.454,4,12,0.53,0.9,6,"""PSU_TestTrack"""
1722883542956455476,,154,,1722883542,955310106,"""SparkFun GPS GGA""","""GGA""",1722883543.0,0.0,40.862212485,-77.83459961166666,334.637,-34.454,4,12,0.53,1.0,6,"""PSU_TestTrack"""
1722883543055764000,,155,,1722883543,54890155,"""SparkFun GPS GGA""","""GGA""",1722883543.0,100000.0,40.862217181666665,-77.83458727333333,334.652,-34.454,4,12,0.53,1.1,6,"""PSU_TestTrack"""
1722883543154554461,,156,,1722883543,154062747,"""SparkFun GPS GGA""","""GGA""",1722883543.0,200000.0,40.862221936666664,-77.834575025,334.656,-34.454,4,12,0.53,1.2,6,"""PSU_TestTrack"""
1722883543253557140,,157,,1722883543,252602577,"""SparkFun GPS GGA""","""GGA""",1722883543.0,300000.0,40.862226713333335,-77.83456282,334.657,-34.454,4,12,0.53,1.3,6,"""PSU_TestTrack"""
1722883543352882668,,158,,1722883543,352170944,"""SparkFun GPS GGA""","""GGA""",1722883543.0,400000.0,40.862231568333335,-77.83455061333333,334.658,-34.454,4,12,0.54,1.4,6,"""PSU_TestTrack"""
1722883543455377869,,159,,1722883543,454827785,"""SparkFun GPS GGA""","""GGA""",1722883543.0,500000.0,40.86223643833333,-77.83453854666666,334.655,-34.454,4,12,0.54,1.5,6,"""PSU_TestTrack"""
1722883543562063378,,160,,1722883543,561553478,"""SparkFun GPS GGA""","""GGA""",1722883543.0,600000.0,40.862241374999996,-77.83452652,334.642,-34.454,4,12,0.56,0.6,6,"""PSU_TestTrack"""
1722883543653128527,,161,,1722883543,652463436,"""SparkFun GPS GGA""","""GGA""",1722883543.0,700000.0,40.862246395,-77.83451449166667,334.642,-34.454,4,12,0.56,0.7,6,"""PSU_TestTrack"""
1722883543753902654,,162,,1722883543,753143787,"""SparkFun GPS GGA""","""GGA""",1722883543.0,800000.0,40.862251515,-77.83450237666666,334.666,-34.454,4,12,0.56,0.8,6,"""PSU_TestTrack"""
1722883543847100599,,163,,1722883543,846627950,"""SparkFun GPS GGA""","""GGA""",1722883543.0,900000.0,40.862256738333336,-77.83449031166667,334.68899999999996,-34.454,4,12,0.54,0.9,6,"""PSU_TestTrack"""
1722883543960184105,,164,,1722883543,959474325,"""SparkFun GPS GGA""","""GGA""",1722883544.0,0.0,40.86226189333333,-77.834478325,334.69,-34.454,4,12,0.53,1.0,6,"""PSU_TestTrack"""
1722883544055858241,,165,,1722883544,54937839,"""SparkFun GPS GGA""","""GGA""",1722883544.0,100000.0,40.86226709,-77.83446649,334.67699999999996,-34.454,4,12,0.54,1.1,6,"""PSU_TestTrack"""
1722883544157394578,,166,,1722883544,156781911,"""SparkFun GPS GGA""","""GGA""",1722883544.0,200000.0,40.86227236166667,-77.83445473,334.665,-34.454,4,12,0.53,1.2,6,"""PSU_TestTrack"""
1722883544256089814,,167,,1722883544,255538940,"""SparkFun GPS GGA""","""GGA""",1722883544.0,300000.0,40.862277678333335,-77.83444289,334.661,-34.454,4,12,0.53,1.3,6,"""PSU_TestTrack"""
1722883544351675129,,168,,1722883544,351178407,"""SparkFun GPS GGA""","""GGA""",1722883544.0,400000.0,40.862283051666665,-77.83443102833333,334.667,-34.454,4,12,0.58,1.4,6,"""PSU_TestTrack"""
1722883544451211774,,169,,1722883544,450063467,"""SparkFun GPS GGA""","""GGA""",1722883544.0,500000.0,40.862288488333334,-77.834419225,334.681,-34.454,4,12,0.58,1.5,6,"""PSU_TestTrack"""
1722883544552326248,,170,,1722883544,551524639,"""SparkFun GPS GGA""","""GGA""",1722883544.0,600000.0,40.86229395,-77.83440747666667,334.68899999999996,-34.454,4,12,0.55,1.6,6,"""PSU_TestTrack"""
1722883544654438933,,171,,1722883544,653683900,"""SparkFun GPS GGA""","""GGA""",1722883544.0,700000.0,40.86229951,-77.83439589166667,334.699,-34.454,4,12,0.56,1.7,6,"""PSU_TestTrack"""
1722883544756864132,,172,,1722883544,756066560,"""SparkFun GPS GGA""","""GGA""",1722883544.0,800000.0,40.86230491333333,-77.834384405,334.69,-34.454,4,12,0.54,0.8,6,"""PSU_TestTrack"""
1722883544851945825,,173,,1722883544,851429462,"""SparkFun GPS GGA""","""GGA""",1722883544.0,900000.0,40.862310415,-77.83437277833333,334.686,-34.454,4,12,0.54,0.9,6,"""PSU_TestTrack"""
1722883544959237753,,174,,1722883544,958482265,"""SparkFun GPS GGA""","""GGA""",1722883545.0,0.0,40.86231614333333,-77.83436114833333,334.71,-34.454,4,12,0.53,1.0,6,"""PSU_TestTrack"""
1722883545053798144,,175,,1722883545,53215265,"""SparkFun GPS GGA""","""GGA""",1722883545.0,100000.0,40.86232191333333,-77.83434944666666,334.74399999999997,-34.454,4,12,0.54,1.1,6,"""PSU_TestTrack"""
1722883545151730441,,176,,1722883545,151010990,"""SparkFun GPS GGA""","""GGA""",1722883545.0,200000.0,40.86232762666667,-77.83433784833333,334.756,-34.454,4,12,0.53,1.2,6,"""PSU_TestTrack"""
1722883545256216603,,177,,1722883545,255313396,"""SparkFun GPS GGA""","""GGA""",1722883545.0,300000.0,40.86233334833334,-77.83432635,334.74899999999997,-34.454,4,12,0.55,1.3,6,"""PSU_TestTrack"""
1722883545350002863,,178,,1722883545,349462985,"""SparkFun GPS GGA""","""GGA""",1722883545.0,400000.0,40.862339105,-77.83431499166667,334.73699999999997,-34.454,4,12,0.55,1.4,6,"""PSU_TestTrack"""
1722883545451000553,,179,,1722883545,450359344,"""SparkFun GPS GGA""","""GGA""",1722883545.0,500000.0,40.862344863333334,-77.83430372166667,334.718,-34.454,4,12,0.55,1.5,6,"""PSU_TestTrack"""
1722883545562685228,,180,,1722883545,561973571,"""SparkFun GPS GGA""","""GGA""",1722883545.0,600000.0,40.86235061,-77.83429239833333,334.7,-34.454,4,12,0.55,0.6,6,"""PSU_TestTrack"""
1722883545645560873,,181,,1722883545,645040750,"""SparkFun GPS GGA""","""GGA""",1722883545.0,700000.0,40.86235649,-77.83428102333333,334.71,-34.454,4,12,0.56,0.7,6,"""PSU_TestTrack"""
1722883545751892442,,182,,1722883545,751169204,"""SparkFun GPS GGA""","""GGA""",1722883545.0,800000.0,40.86236246666667,-77.83426967,334.742,-34.454,4,12,0.56,0.8,6,"""PSU_TestTrack"""
1722883545854010544,,183,,1722883545,853372097,"""SparkFun GPS GGA""","""GGA""",1722883545.0,900000.0,40.862368535,-77.83425836166667,334.776,-34.454,4,12,0.55,0.9,6,"""PSU_TestTrack"""
1722883545958460093,,184,,1722883545,957796812,"""SparkFun GPS GGA""","""GGA""",1722883546.0,0.0,40.86237450666667,-77.83424705833333,334.784,-34.454,4,12,0.55,1.0,6,"""PSU_TestTrack"""
1722883546054376449,,185,,1722883546,53527355,"""SparkFun GPS GGA""","""GGA""",1722883546.0,100000.0,40.86238059666667,-77.83423596833333,334.793,-34.454,4,12,0.54,1.1,6,"""PSU_TestTrack"""
1722883546166265564,,186,,1722883546,165627479,"""SparkFun GPS GGA""","""GGA""",1722883546.0,200000.0,40.862386748333336,-77.83422499166667,334.795,-34.454,4,12,0.54,0.2,6,"""PSU_TestTrack"""
1722883546252266892,,187,,1722883546,251510381,"""SparkFun GPS GGA""","""GGA""",1722883546.0,300000.0,40.86239286333333,-77.83421390166667,334.794,-34.454,4,12,0.56,0.3,6,"""PSU_TestTrack"""
1722883546351464478,,188,,1722883546,350972652,"""SparkFun GPS GGA""","""GGA""",1722883546.0,400000.0,40.86239896666667,-77.83420279166667,334.80199999999996,-34.454,4,12,0.56,0.4,6,"""PSU_TestTrack"""
1722883546450637613,,189,,1722883546,450094699,"""SparkFun GPS GGA""","""GGA""",1722883546.0,500000.0,40.862405065,-77.834191685,334.803,-34.454,4,12,0.66,0.5,6,"""PSU_TestTrack"""
1722883546547134698,,190,,1722883546,545794486,"""SparkFun GPS GGA""","""GGA""",1722883546.0,600000.0,40.86241121333333,-77.83418062666667,334.813,-34.454,4,12,0.58,0.6,6,"""PSU_TestTrack"""
1722883546652659993,,191,,1722883546,651847600,"""SparkFun GPS GGA""","""GGA""",1722883546.0,700000.0,40.86241733,-77.83416963666667,334.819,-34.454,4,12,0.58,0.7,6,"""PSU_TestTrack"""
1722883546756877599,,192,,1722883546,756092309,"""SparkFun GPS GGA""","""GGA""",1722883546.0,800000.0,40.86242350166667,-77.83415863333333,334.82,-34.454,4,12,0.54,0.8,6,"""PSU_TestTrack"""
1722883546852090580,,193,,1722883546,851565122,"""SparkFun GPS GGA""","""GGA""",1722883546.0,900000.0,40.862429655,-77.83414769833334,334.829,-34.454,4,12,0.57,0.9,6,"""PSU_TestTrack"""
1722883546959799456,,194,,1722883546,959371805,"""SparkFun GPS GGA""","""GGA""",1722883547.0,0.0,40.86243587333333,-77.83413680666666,334.844,-34.454,4,12,0.56,1.0,6,"""PSU_TestTrack"""
1722883547054143658,,195,,1722883547,53511857,"""SparkFun GPS GGA""","""GGA""",1722883547.0,100000.0,40.86244211,-77.83412598166667,334.855,-34.454,4,12,0.56,1.1,6,"""PSU_TestTrack"""
1722883547151861670,,196,,1722883547,151416063,"""SparkFun GPS GGA""","""GGA""",1722883547.0,200000.0,40.862448228333335,-77.83411514833334,334.854,-34.454,4,12,0.54,1.2,6,"""PSU_TestTrack"""
1722883547252178627,,197,,1722883547,251491546,"""SparkFun GPS GGA""","""GGA""",1722883547.0,300000.0,40.862454416666665,-77.83410444333333,334.86,-34.454,4,12,0.54,1.3,6,"""PSU_TestTrack"""
1722883547352970235,,198,,1722883547,352503538,"""SparkFun GPS GGA""","""GGA""",1722883547.0,400000.0,40.862460518333336,-77.83409378666667,334.861,-34.454,4,12,0.54,1.4,6,"""PSU_TestTrack"""
1722883547448030006,,199,,1722883547,447425127,"""SparkFun GPS GGA""","""GGA""",1722883547.0,500000.0,40.862466633333334,-77.83408324333334,334.867,-34.454,4,12,0.56,1.5,6,"""PSU_TestTrack"""
1722883547560857240,,200,,1722883547,560432195,"""SparkFun GPS GGA""","""GGA""",1722883547.0,600000.0,40.86247270166667,-77.834072715,334.87399999999997,-34.454,4,12,0.56,0.6,6,"""PSU_TestTrack"""
1722883547653889308,,201,,1722883547,653326034,"""SparkFun GPS GGA""","""GGA""",1722883547.0,700000.0,40.86247873166667,-77.83406229833334,334.881,-34.454,4,12,0.57,0.7,6,"""PSU_TestTrack"""
1722883547749650199,,202,,1722883547,748857021,"""SparkFun GPS GGA""","""GGA""",1722883547.0,800000.0,40.86248469666667,-77.83405191666667,334.88599999999997,-34.454,4,12,0.57,0.8,6,"""PSU_TestTrack"""
1722883547849445829,,203,,1722883547,848768949,"""SparkFun GPS GGA""","""GGA""",1722883547.0,900000.0,40.86249067,-77.83404166,334.902,-34.454,4,12,0.6,0.9,6,"""PSU_TestTrack"""
1722883547957052178,,204,,1722883547,956285953,"""SparkFun GPS GGA""","""GGA""",1722883548.0,0.0,40.86249657,-77.83403143833333,334.913,-34.454,4,12,0.6,1.0,6,"""PSU_TestTrack"""
1722883548052003380,,205,,1722883548,51459550,"""SparkFun GPS GGA""","""GGA""",1722883548.0,100000.0,40.86250238,-77.83402132833334,334.917,-34.454,4,12,0.6,1.1,6,"""PSU_TestTrack"""
1722883548150382064,,206,,1722883548,149961471,"""SparkFun GPS GGA""","""GGA""",1722883548.0,200000.0,40.86250810833333,-77.83401138666666,334.92199999999997,-34.454,4,12,0.62,1.2,6,"""PSU_TestTrack"""
1722883548252819673,,207,,1722883548,252318382,"""SparkFun GPS GGA""","""GGA""",1722883548.0,300000.0,40.862513915,-77.83400150666667,334.93399999999997,-34.454,4,12,0.6,1.3,6,"""PSU_TestTrack"""
1722883548355983718,,208,,1722883548,355497121,"""SparkFun GPS GGA""","""GGA""",1722883548.0,400000.0,40.86251960333333,-77.83399166333334,334.93899999999996,-34.454,4,12,0.6,0.4,6,"""PSU_TestTrack"""
1722883548450107831,,209,,1722883548,449514150,"""SparkFun GPS GGA""","""GGA""",1722883548.0,500000.0,40.862525115,-77.83398204333334,334.941,-34.454,4,12,0.56,0.5,6,"""PSU_TestTrack"""
1722883548552174313,,210,,1722883548,551515579,"""SparkFun GPS GGA""","""GGA""",1722883548.0,600000.0,40.86253058166667,-77.833972625,334.93,-34.454,4,12,0.56,0.6,6,"""PSU_TestTrack"""
1722883548654392462,,211,,1722883548,653833866,"""SparkFun GPS GGA""","""GGA""",1722883548.0,700000.0,40.86253592833334,-77.83396337666667,334.903,-34.454,4,12,0.54,0.7,6,"""PSU_TestTrack"""
1722883548753827218,,212,,1722883548,753317594,"""SparkFun GPS GGA""","""GGA""",1722883548.0,800000.0,40.862541195,-77.8339541,334.903,-34.454,4,12,0.53,0.8,6,"""PSU_TestTrack"""
1722883548854528615,,213,,1722883548,854180335,"""SparkFun GPS GGA""","""GGA""",1722883548.0,900000.0,40.862546556666665,-77.833944965,334.92199999999997,-34.454,4,12,0.53,0.9,6,"""PSU_TestTrack"""
1722883548960440487,,214,,1722883548,959803342,"""SparkFun GPS GGA""","""GGA""",1722883549.0,0.0,40.86255175833333,-77.83393595666666,334.933,-34.454,4,12,0.54,1.0,6,"""PSU_TestTrack"""
1722883549052701256,,215,,1722883549,51873445,"""SparkFun GPS GGA""","""GGA""",1722883549.0,100000.0,40.86255693166667,-77.833927105,334.948,-34.454,4,12,0.55,1.1,6,"""PSU_TestTrack"""
1722883549154603258,,216,,1722883549,154135227,"""SparkFun GPS GGA""","""GGA""",1722883549.0,200000.0,40.862562015,-77.83391844,334.959,-34.454,4,12,0.55,1.2,6,"""PSU_TestTrack"""
1722883549247827371,,217,,1722883549,247191667,"""SparkFun GPS GGA""","""GGA""",1722883549.0,300000.0,40.862566975,-77.83390994666667,334.953,-34.454,4,12,0.54,1.3,6,"""PSU_TestTrack"""
1722883549352642539,,218,,1722883549,351533412,"""SparkFun GPS GGA""","""GGA""",1722883549.0,400000.0,40.862571841666664,-77.833901635,334.94599999999997,-34.454,4,12,0.55,1.4,6,"""PSU_TestTrack"""
1722883549451121128,,219,,1722883549,450782299,"""SparkFun GPS GGA""","""GGA""",1722883549.0,500000.0,40.862576573333335,-77.833893415,334.93899999999996,-34.454,4,12,0.57,1.5,6,"""PSU_TestTrack"""
1722883549551041301,,220,,1722883549,550081968,"""SparkFun GPS GGA""","""GGA""",1722883549.0,600000.0,40.86258127166667,-77.83388537,334.93899999999996,-34.454,4,12,0.55,1.6,6,"""PSU_TestTrack"""
1722883549661706404,,221,,1722883549,661213397,"""SparkFun GPS GGA""","""GGA""",1722883549.0,700000.0,40.862585876666664,-77.83387748333334,334.948,-34.454,4,12,0.54,0.7,6,"""PSU_TestTrack"""
1722883549755063192,,222,,1722883549,754416704,"""SparkFun GPS GGA""","""GGA""",1722883549.0,800000.0,40.862590435,-77.83386978833333,334.961,-34.454,4,12,0.54,0.8,6,"""PSU_TestTrack"""
1722883549849470101,,223,,1722883549,849109172,"""SparkFun GPS GGA""","""GGA""",1722883549.0,900000.0,40.86259486833333,-77.83386229166666,334.968,-34.454,4,12,0.55,0.9,6,"""PSU_TestTrack"""
1722883549959392862,,224,,1722883549,958615541,"""SparkFun GPS GGA""","""GGA""",1722883550.0,0.0,40.862599175,-77.83385489,334.971,-34.454,4,12,0.56,1.0,6,"""PSU_TestTrack"""
1722883550053705727,,225,,1722883550,53160905,"""SparkFun GPS GGA""","""GGA""",1722883550.0,100000.0,40.862603425,-77.8338477,334.969,-34.454,4,12,0.56,1.1,6,"""PSU_TestTrack"""
1722883550152245042,,226,,1722883550,151542186,"""SparkFun GPS GGA""","""GGA""",1722883550.0,200000.0,40.86260747,-77.833840925,334.961,-34.454,4,12,0.54,1.2,6,"""PSU_TestTrack"""
1722883550255781118,,227,,1722883550,254874467,"""SparkFun GPS GGA""","""GGA""",1722883550.0,300000.0,40.86261132833334,-77.83383407166667,334.948,-34.454,4,12,0.55,1.3,6,"""PSU_TestTrack"""
1722883550354266367,,228,,1722883550,353826522,"""SparkFun GPS GGA""","""GGA""",1722883550.0,400000.0,40.862615143333336,-77.83382736,334.947,-34.454,4,12,0.54,1.4,6,"""PSU_TestTrack"""
1722883550453238835,,229,,1722883550,452480316,"""SparkFun GPS GGA""","""GGA""",1722883550.0,500000.0,40.86261892833333,-77.83382104666667,334.937,-34.454,4,12,0.56,1.5,6,"""PSU_TestTrack"""
1722883550569350349,,230,,1722883550,567742347,"""SparkFun GPS GGA""","""GGA""",1722883550.0,600000.0,40.862622636666664,-77.83381480833333,334.949,-34.454,4,12,0.56,0.6,6,"""PSU_TestTrack"""
1722883550652114836,,231,,1722883550,651736259,"""SparkFun GPS GGA""","""GGA""",1722883550.0,700000.0,40.862626338333335,-77.83380868166667,334.984,-34.454,4,12,0.61,0.7,6,"""PSU_TestTrack"""
1722883550752974591,,232,,1722883550,752205610,"""SparkFun GPS GGA""","""GGA""",1722883550.0,800000.0,40.86262996666667,-77.83380287666667,334.99899999999997,-34.454,4,12,0.61,0.8,6,"""PSU_TestTrack"""
1722883550849486992,,233,,1722883550,849069118,"""SparkFun GPS GGA""","""GGA""",1722883550.0,900000.0,40.86263325,-77.833797085,334.99,-34.454,4,12,0.61,0.9,6,"""PSU_TestTrack"""
1722883550958309847,,234,,1722883550,957650661,"""SparkFun GPS GGA""","""GGA""",1722883551.0,0.0,40.86263640666667,-77.83379142333334,334.977,-34.454,4,12,0.56,1.0,6,"""PSU_TestTrack"""
1722883551046909850,,235,,1722883551,45818090,"""SparkFun GPS GGA""","""GGA""",1722883551.0,100000.0,40.862639488333336,-77.83378576833333,334.976,-34.454,4,12,0.55,1.1,6,"""PSU_TestTrack"""
1722883551150154319,,236,,1722883551,149573087,"""SparkFun GPS GGA""","""GGA""",1722883551.0,200000.0,40.86264248166667,-77.83378042,334.964,-34.454,4,12,0.59,1.2,6,"""PSU_TestTrack"""
1722883551251379584,,237,,1722883551,250646591,"""SparkFun GPS GGA""","""GGA""",1722883551.0,300000.0,40.86264576333333,-77.83377544333334,334.961,-34.454,4,12,0.59,1.3,6,"""PSU_TestTrack"""
1722883551351385722,,238,,1722883551,350861310,"""SparkFun GPS GGA""","""GGA""",1722883551.0,400000.0,40.862649,-77.83377057666667,334.981,-34.454,4,12,0.59,1.4,6,"""PSU_TestTrack"""
1722883551462749231,,239,,1722883551,461220979,"""SparkFun GPS GGA""","""GGA""",1722883551.0,500000.0,40.862651945,-77.83376569166667,334.979,-34.454,4,12,0.54,0.5,6,"""PSU_TestTrack"""
1722883551551140200,,240,,1722883551,550600290,"""SparkFun GPS GGA""","""GGA""",1722883551.0,600000.0,40.86265478666667,-77.83376076,334.988,-34.454,4,12,0.58,0.6,6,"""PSU_TestTrack"""
1722883551651791091,,241,,1722883551,650562286,"""SparkFun GPS GGA""","""GGA""",1722883551.0,700000.0,40.862657526666666,-77.83375585,334.98199999999997,-34.454,4,12,0.63,0.7,6,"""PSU_TestTrack"""
1722883551752657098,,242,,1722883551,751958608,"""SparkFun GPS GGA""","""GGA""",1722883551.0,800000.0,40.86266009166667,-77.83375080833333,334.983,-34.454,4,12,0.63,0.8,6,"""PSU_TestTrack"""
1722883551852916540,,243,,1722883551,852535486,"""SparkFun GPS GGA""","""GGA""",1722883551.0,900000.0,40.86266276833334,-77.833746175,334.969,-34.454,4,12,0.62,0.9,6,"""PSU_TestTrack"""
1722883551949155219,,244,,1722883551,948766469,"""SparkFun GPS GGA""","""GGA""",1722883552.0,0.0,40.862665508333336,-77.83374165166667,334.968,-34.454,4,12,0.57,1.0,6,"""PSU_TestTrack"""
1722883552051138799,,245,,1722883552,50568819,"""SparkFun GPS GGA""","""GGA""",1722883552.0,100000.0,40.862668295,-77.83373705333334,334.986,-34.454,4,12,0.6,1.1,6,"""PSU_TestTrack"""
1722883552158891715,,246,,1722883552,157457828,"""SparkFun GPS GGA""","""GGA""",1722883552.0,200000.0,40.86267108,-77.83373249833333,335.001,-34.454,4,12,0.56,1.2,6,"""PSU_TestTrack"""
1722883552253971983,,247,,1722883552,252601146,"""SparkFun GPS GGA""","""GGA""",1722883552.0,300000.0,40.862673818333334,-77.83372808666667,334.993,-34.454,4,12,0.65,1.3,6,"""PSU_TestTrack"""
1722883552358208590,,248,,1722883552,357817173,"""SparkFun GPS GGA""","""GGA""",1722883552.0,400000.0,40.862676545,-77.83372356,334.989,-34.454,4,12,0.65,0.4,6,"""PSU_TestTrack"""
1722883552448604482,,249,,1722883552,448132276,"""SparkFun GPS GGA""","""GGA""",1722883552.0,500000.0,40.86267903833333,-77.83371906333333,334.974,-34.454,4,12,0.76,0.5,6,"""PSU_TestTrack"""
1722883552551215268,,250,,1722883552,550458431,"""SparkFun GPS GGA""","""GGA""",1722883552.0,600000.0,40.86268151,-77.83371446,334.984,-34.454,4,12,0.61,0.6,6,"""PSU_TestTrack"""
1722883552649134015,,251,,1722883552,648640394,"""SparkFun GPS GGA""","""GGA""",1722883552.0,700000.0,40.862684093333336,-77.83370998333334,334.989,-34.454,4,12,0.65,0.7,6,"""PSU_TestTrack"""
1722883552750028893,,252,,1722883552,749276161,"""SparkFun GPS GGA""","""GGA""",1722883552.0,800000.0,40.862686685,-77.83370550666666,334.993,-34.454,4,12,0.65,0.8,6,"""PSU_TestTrack"""
1722883552846334737,,253,,1722883552,845250129,"""SparkFun GPS GGA""","""GGA""",1722883552.0,900000.0,40.862689233333334,-77.83370095,334.99899999999997,-34.454,4,12,0.6,0.9,6,"""PSU_TestTrack"""
1722883552957082529,,254,,1722883552,956617355,"""SparkFun GPS GGA""","""GGA""",1722883553.0,0.0,40.86269175166667,-77.83369649333333,334.972,-34.454,4,12,0.58,1.0,6,"""PSU_TestTrack"""
1722883553052208026,,255,,1722883553,51809072,"""SparkFun GPS GGA""","""GGA""",1722883553.0,100000.0,40.86269431,-77.83369198666666,334.959,-34.454,4,12,0.6,1.1,6,"""PSU_TestTrack"""
1722883553149963705,,256,,1722883553,149240970,"""SparkFun GPS GGA""","""GGA""",1722883553.0,200000.0,40.86269703333333,-77.833687455,334.971,-34.454,4,12,0.6,1.2,6,"""PSU_TestTrack"""
1722883553258430197,,257,,1722883553,257727384,"""SparkFun GPS GGA""","""GGA""",1722883553.0,300000.0,40.862699688333336,-77.833682995,334.989,-34.454,4,12,0.6,0.3,6,"""PSU_TestTrack"""
1722883553350648974,,258,,1722883553,349572896,"""SparkFun GPS GGA""","""GGA""",1722883553.0,400000.0,40.862702475,-77.83367847333334,335.013,-34.454,4,12,0.6,0.4,6,"""PSU_TestTrack"""
1722883553448639611,,259,,1722883553,448062896,"""SparkFun GPS GGA""","""GGA""",1722883553.0,500000.0,40.862705336666664,-77.83367418333333,335.017,-34.454,4,12,0.55,0.5,6,"""PSU_TestTrack"""
1722883553550595976,,260,,1722883553,549730300,"""SparkFun GPS GGA""","""GGA""",1722883553.0,600000.0,40.86270785333333,-77.833669515,335.0,-34.454,4,12,0.57,0.6,6,"""PSU_TestTrack"""
1722883553651479368,,261,,1722883553,650816202,"""SparkFun GPS GGA""","""GGA""",1722883553.0,700000.0,40.862710396666664,-77.83366472,334.99,-34.454,4,12,0.57,0.7,6,"""PSU_TestTrack"""
1722883553743548611,,262,,1722883553,743074655,"""SparkFun GPS GGA""","""GGA""",1722883553.0,800000.0,40.86271292166667,-77.833659975,334.988,-34.454,4,12,0.57,0.8,6,"""PSU_TestTrack"""
1722883553849352956,,263,,1722883553,848463773,"""SparkFun GPS GGA""","""GGA""",1722883553.0,900000.0,40.86271557833334,-77.83365541333333,334.99399999999997,-34.454,4,12,0.61,0.9,6,"""PSU_TestTrack"""
1722883553957407665,,264,,1722883553,956810235,"""SparkFun GPS GGA""","""GGA""",1722883554.0,0.0,40.86271828,-77.83365072166667,334.983,-34.454,4,12,0.59,1.0,6,"""PSU_TestTrack"""
1722883554046798990,,265,,1722883554,46084403,"""SparkFun GPS GGA""","""GGA""",1722883554.0,100000.0,40.86272120666667,-77.83364618333333,334.993,-34.454,4,12,0.61,1.1,6,"""PSU_TestTrack"""
1722883554158787710,,266,,1722883554,158158063,"""SparkFun GPS GGA""","""GGA""",1722883554.0,200000.0,40.862724145,-77.83364165833333,334.997,-34.454,4,12,0.59,0.2,6,"""PSU_TestTrack"""
1722883554251535378,,267,,1722883554,250417709,"""SparkFun GPS GGA""","""GGA""",1722883554.0,300000.0,40.86272686,-77.83363696,334.989,-34.454,4,12,0.59,0.3,6,"""PSU_TestTrack"""
1722883554348389592,,268,,1722883554,348095178,"""SparkFun GPS GGA""","""GGA""",1722883554.0,400000.0,40.862729535,-77.83363210333333,335.006,-34.454,4,12,0.58,0.4,6,"""PSU_TestTrack"""
1722883554451745778,,269,,1722883554,451332092,"""SparkFun GPS GGA""","""GGA""",1722883554.0,500000.0,40.862732185,-77.83362718333333,335.015,-34.454,4,12,0.55,0.5,6,"""PSU_TestTrack"""
1722883554555473454,,270,,1722883554,554102420,"""SparkFun GPS GGA""","""GGA""",1722883554.0,600000.0,40.86273481,-77.83362195833334,335.01,-34.454,4,12,0.55,0.6,6,"""PSU_TestTrack"""
1722883554647230256,,271,,1722883554,646727561,"""SparkFun GPS GGA""","""GGA""",1722883554.0,700000.0,40.862737706666664,-77.83361735833333,335.003,-34.454,4,12,0.56,0.7,6,"""PSU_TestTrack"""
1722883554751632653,,272,,1722883554,750869274,"""SparkFun GPS GGA""","""GGA""",1722883554.0,800000.0,40.862740675,-77.83361290333333,334.989,-34.454,4,12,0.59,0.8,6,"""PSU_TestTrack"""
1722883554852815130,,273,,1722883554,852017879,"""SparkFun GPS GGA""","""GGA""",1722883554.0,900000.0,40.86274363333333,-77.833607975,335.007,-34.454,4,12,0.65,0.9,6,"""PSU_TestTrack"""
1722883554955990273,,274,,1722883554,955267190,"""SparkFun GPS GGA""","""GGA""",1722883555.0,0.0,40.86274655333333,-77.83360302166666,335.034,-34.454,4,12,0.7,1.0,6,"""PSU_TestTrack"""
1722883555049304286,,275,,1722883555,48842668,"""SparkFun GPS GGA""","""GGA""",1722883555.0,100000.0,40.86274939,-77.83359791,335.046,-34.454,4,12,0.64,1.1,6,"""PSU_TestTrack"""
1722883555148507803,,276,,1722883555,147941827,"""SparkFun GPS GGA""","""GGA""",1722883555.0,200000.0,40.862752265,-77.83359288,335.024,-34.454,4,12,0.64,1.2,6,"""PSU_TestTrack"""
1722883555247722644,,277,,1722883555,247060775,"""SparkFun GPS GGA""","""GGA""",1722883555.0,300000.0,40.86275520666667,-77.8335879,335.017,-34.454,4,12,0.64,1.3,6,"""PSU_TestTrack"""
1722883555352429290,,278,,1722883555,351329803,"""SparkFun GPS GGA""","""GGA""",1722883555.0,400000.0,40.86275825166667,-77.83358275,335.044,-34.454,4,12,0.59,1.4,6,"""PSU_TestTrack"""
1722883555451595065,,279,,1722883555,451082229,"""SparkFun GPS GGA""","""GGA""",1722883555.0,500000.0,40.862761348333336,-77.83357766,335.063,-34.454,4,12,0.62,1.5,6,"""PSU_TestTrack"""
1722883555552345095,,280,,1722883555,551777601,"""SparkFun GPS GGA""","""GGA""",1722883555.0,600000.0,40.86276437833333,-77.83357249833334,335.05899999999997,-34.454,4,12,0.59,0.6,6,"""PSU_TestTrack"""
1722883555648859582,,281,,1722883555,648341417,"""SparkFun GPS GGA""","""GGA""",1722883555.0,700000.0,40.862767401666666,-77.833567355,335.058,-34.454,4,12,0.59,0.7,6,"""PSU_TestTrack"""
1722883555752152315,,282,,1722883555,751649141,"""SparkFun GPS GGA""","""GGA""",1722883555.0,800000.0,40.86277039666667,-77.83356199166667,335.054,-34.454,4,12,0.61,0.8,6,"""PSU_TestTrack"""
1722883555848910381,,283,,1722883555,848469495,"""SparkFun GPS GGA""","""GGA""",1722883555.0,900000.0,40.86277342166667,-77.83355665166667,335.04699999999997,-34.454,4,12,0.56,0.9,6,"""PSU_TestTrack"""
1722883555955775814,,284,,1722883555,954983711,"""SparkFun GPS GGA""","""GGA""",1722883556.0,0.0,40.86277651333333,-77.8335513,335.048,-34.454,4,12,0.56,1.0,6,"""PSU_TestTrack"""
1722883556051800422,,285,,1722883556,51349163,"""SparkFun GPS GGA""","""GGA""",1722883556.0,100000.0,40.862779591666666,-77.83354589333334,335.046,-34.454,4,12,0.56,1.1,6,"""PSU_TestTrack"""
1722883556147037547,,286,,1722883556,146577596,"""SparkFun GPS GGA""","""GGA""",1722883556.0,200000.0,40.86278275833333,-77.83354039833333,335.045,-34.454,4,12,0.6,1.2,6,"""PSU_TestTrack"""
1722883556247954632,,287,,1722883556,247547388,"""SparkFun GPS GGA""","""GGA""",1722883556.0,300000.0,40.862785953333336,-77.83353493333334,335.054,-34.454,4,12,0.65,1.3,6,"""PSU_TestTrack"""
1722883556348398051,,288,,1722883556,347867965,"""SparkFun GPS GGA""","""GGA""",1722883556.0,400000.0,40.86278912833333,-77.83352937,335.049,-34.454,4,12,0.65,1.4,6,"""PSU_TestTrack"""
1722883556441529944,,289,,1722883556,441168308,"""SparkFun GPS GGA""","""GGA""",1722883556.0,500000.0,40.862792381666665,-77.83352381333333,335.054,-34.454,4,12,0.65,1.5,6,"""PSU_TestTrack"""
1722883556548644260,,290,,1722883556,547751903,"""SparkFun GPS GGA""","""GGA""",1722883556.0,600000.0,40.86279565666667,-77.833518155,335.05899999999997,-34.454,4,12,0.65,1.6,6,"""PSU_TestTrack"""
1722883556654038888,,291,,1722883556,653368234,"""SparkFun GPS GGA""","""GGA""",1722883556.0,700000.0,40.86279892,-77.83351239,335.06,-34.454,4,12,0.65,1.7,6,"""PSU_TestTrack"""
1722883556757155376,,292,,1722883556,756607294,"""SparkFun GPS GGA""","""GGA""",1722883556.0,800000.0,40.86280232166666,-77.83350659833333,335.06399999999996,-34.454,4,12,0.76,0.8,6,"""PSU_TestTrack"""
1722883556847405833,,293,,1722883556,846717357,"""SparkFun GPS GGA""","""GGA""",1722883556.0,900000.0,40.86280570833333,-77.83350074666667,335.061,-34.454,4,12,0.65,0.9,6,"""PSU_TestTrack"""
1722883556955168289,,294,,1722883556,954229831,"""SparkFun GPS GGA""","""GGA""",1722883557.0,0.0,40.862809178333336,-77.8334948,335.06399999999996,-34.454,4,12,0.65,1.0,6,"""PSU_TestTrack"""
1722883557048630865,,295,,1722883557,48255681,"""SparkFun GPS GGA""","""GGA""",1722883557.0,100000.0,40.86281266,-77.83348867166667,335.067,-34.454,4,12,0.65,1.1,6,"""PSU_TestTrack"""
1722883557148099874,,296,,1722883557,147455215,"""SparkFun GPS GGA""","""GGA""",1722883557.0,200000.0,40.8628162,-77.83348249166667,335.072,-34.454,4,12,0.76,1.2,6,"""PSU_TestTrack"""
1722883557263143675,,297,,1722883557,262759447,"""SparkFun GPS GGA""","""GGA""",1722883557.0,300000.0,40.862819875,-77.83347626166666,335.073,-34.454,4,12,0.6,0.3,6,"""PSU_TestTrack"""
1722883557341819946,,298,,1722883557,341317653,"""SparkFun GPS GGA""","""GGA""",1722883557.0,400000.0,40.86282353666667,-77.83346984833334,335.072,-34.454,4,12,0.65,0.4,6,"""PSU_TestTrack"""
1722883557449345877,,299,,1722883557,448805570,"""SparkFun GPS GGA""","""GGA""",1722883557.0,500000.0,40.862827286666665,-77.83346342333333,335.078,-34.454,4,12,0.65,0.5,6,"""PSU_TestTrack"""
1722883557549221646,,300,,1722883557,548473119,"""SparkFun GPS GGA""","""GGA""",1722883557.0,600000.0,40.86283109833333,-77.83345691333334,335.084,-34.454,4,12,0.65,0.6,6,"""PSU_TestTrack"""
1722883557648060506,,301,,1722883557,647552490,"""SparkFun GPS GGA""","""GGA""",1722883557.0,700000.0,40.86283491166667,-77.83345023333334,335.091,-34.454,4,12,0.65,0.7,6,"""PSU_TestTrack"""
1722883557747531221,,302,,1722883557,746773481,"""SparkFun GPS GGA""","""GGA""",1722883557.0,800000.0,40.86283875666667,-77.83344350333333,335.091,-34.454,4,12,0.65,0.8,6,"""PSU_TestTrack"""
1722883557849795231,,303,,1722883557,849225521,"""SparkFun GPS GGA""","""GGA""",1722883557.0,900000.0,40.862842666666666,-77.83343672166667,335.097,-34.454,4,12,0.65,0.9,6,"""PSU_TestTrack"""
1722883557955139112,,304,,1722883557,954178094,"""SparkFun GPS GGA""","""GGA""",1722883558.0,0.0,40.86284668166667,-77.83342984666666,335.09499999999997,-34.454,4,12,0.6,1.0,6,"""PSU_TestTrack"""
1722883558049740548,,305,,1722883558,49259424,"""SparkFun GPS GGA""","""GGA""",1722883558.0,100000.0,40.86285071333333,-77.83342291333334,335.098,-34.454,4,12,0.6,1.1,6,"""PSU_TestTrack"""
1722883558152459457,,306,,1722883558,151754140,"""SparkFun GPS GGA""","""GGA""",1722883558.0,200000.0,40.862854815,-77.8334159,335.098,-34.454,4,12,0.6,1.2,6,"""PSU_TestTrack"""
1722883558251412794,,307,,1722883558,250633955,"""SparkFun GPS GGA""","""GGA""",1722883558.0,300000.0,40.862858985,-77.83340884,335.101,-34.454,4,12,0.76,0.3,6,"""PSU_TestTrack"""
1722883558349834019,,308,,1722883558,348607778,"""SparkFun GPS GGA""","""GGA""",1722883558.0,400000.0,40.86286320666667,-77.83340172333334,335.102,-34.454,4,12,0.76,0.4,6,"""PSU_TestTrack"""
1722883558449157190,,309,,1722883558,448575973,"""SparkFun GPS GGA""","""GGA""",1722883558.0,500000.0,40.86286744666667,-77.833394475,335.101,-34.454,4,12,0.76,0.5,6,"""PSU_TestTrack"""
1722883558547076675,,310,,1722883558,546731710,"""SparkFun GPS GGA""","""GGA""",1722883558.0,600000.0,40.862871733333336,-77.83338716166666,335.09999999999997,-34.454,4,12,0.65,0.6,6,"""PSU_TestTrack"""
1722883558650500712,,311,,1722883558,649905681,"""SparkFun GPS GGA""","""GGA""",1722883558.0,700000.0,40.862876021666665,-77.83337978,335.104,-34.454,4,12,0.65,0.7,6,"""PSU_TestTrack"""
1722883558752901684,,312,,1722883558,751795530,"""SparkFun GPS GGA""","""GGA""",1722883558.0,800000.0,40.862880383333334,-77.83337229666667,335.10699999999997,-34.454,4,12,0.65,0.8,6,"""PSU_TestTrack"""
1722883558848123738,,313,,1722883558,847753524,"""SparkFun GPS GGA""","""GGA""",1722883558.0,900000.0,40.862884853333334,-77.83336473,335.114,-34.454,4,12,0.59,0.9,6,"""PSU_TestTrack"""
1722883558955391227,,314,,1722883558,954892873,"""SparkFun GPS GGA""","""GGA""",1722883559.0,0.0,40.862889335,-77.83335706,335.122,-34.454,4,12,0.59,1.0,6,"""PSU_TestTrack"""
