rosbagTimestamp,header,seq,stamp,secs,nsecs,frame_id,MessageID,GPSSecs,GPSMicroSecs,Latitude,Longitude,Altitude,GeoSep,NavMode,NumOfSats,HDOP,AgeOfDiff,LockStatus,BaseStationID
1722883527679751190,,1,,1722883527,662995100,"""SparkFun GPS GGA""","""GGA""",1722883527.0,700000.0,40.86228820833333,-77.83650533833334,333.896,-34.454,1,12,0.56,0.0,1,"""PSU_TestTrack"""
1722883527761010939,,2,,1722883527,760485172,"""SparkFun GPS GGA""","""GGA""",1722883527.0,800000.0,40.86228365,-77.83649537166667,333.899,-34.454,1,12,0.56,0.0,1,"""PSU_TestTrack"""
1722883527863620441,,3,,1722883527,862917900,"""SparkFun GPS GGA""","""GGA""",1722883527.0,900000.0,40.86227911333334,-77.83648528666667,333.892,-34.454,1,12,0.56,0.0,1,"""PSU_TestTrack"""
1722883527983046545,,4,,1722883527,982177257,"""SparkFun GPS GGA""","""GGA""",1722883528.0,0.0,40.862274585,-77.8364751,333.889,-34.454,1,12,0.56,0.0,1,"""PSU_TestTrack"""
1722883528163533070,,5,,1722883528,162810564,"""SparkFun GPS GGA""","""GGA""",1722883528.0,200000.0,40.86226527666667,-77.83645457166666,333.897,-34.454,2,12,0.58,1.2,2,"""PSU_TestTrack"""
1722883528268882105,,6,,1722883528,268465042,"""SparkFun GPS GGA""","""GGA""",1722883528.0,300000.0,40.862260578333334,-77.83644418166666,333.906,-34.454,2,12,0.58,0.3,2,"""PSU_TestTrack"""
1722883528362940665,,7,,1722883528,362125158,"""SparkFun GPS GGA""","""GGA""",1722883528.0,400000.0,40.862255903333335,-77.83643367,333.908,-34.454,2,12,0.58,0.4,2,"""PSU_TestTrack"""
1722883528466230517,,8,,1722883528,465088605,"""SparkFun GPS GGA""","""GGA""",1722883528.0,500000.0,40.86225128666667,-77.83642309166666,333.916,-34.454,2,12,0.58,0.5,2,"""PSU_TestTrack"""
1722883528564463103,,9,,1722883528,563767433,"""SparkFun GPS GGA""","""GGA""",1722883528.0,600000.0,40.86224669833334,-77.83641244833333,333.923,-34.454,2,12,0.58,0.6,2,"""PSU_TestTrack"""
1722883528664168899,,10,,1722883528,663468837,"""SparkFun GPS GGA""","""GGA""",1722883528.0,700000.0,40.86224214833334,-77.83640168833334,333.932,-34.454,2,12,0.58,0.7,2,"""PSU_TestTrack"""
1722883528762634025,,11,,1722883528,762211084,"""SparkFun GPS GGA""","""GGA""",1722883528.0,800000.0,40.862237635,-77.83639085833333,333.944,-34.454,2,12,0.58,0.8,2,"""PSU_TestTrack"""
1722883528862835684,,12,,1722883528,862526416,"""SparkFun GPS GGA""","""GGA""",1722883528.0,900000.0,40.86223321333333,-77.83637993666666,333.95099999999996,-34.454,2,12,0.58,0.9,2,"""PSU_TestTrack"""
1722883528965866196,,13,,1722883528,965112686,"""SparkFun GPS GGA""","""GGA""",1722883529.0,0.0,40.862228771666665,-77.83636889166667,333.96299999999997,-34.454,2,12,0.58,1.0,2,"""PSU_TestTrack"""
1722883529073637664,,14,,1722883529,72600841,"""SparkFun GPS GGA""","""GGA""",1722883529.0,100000.0,40.86222440833333,-77.83635775833334,333.974,-34.454,2,12,0.58,1.1,2,"""PSU_TestTrack"""
1722883529159652964,,15,,1722883529,159202337,"""SparkFun GPS GGA""","""GGA""",1722883529.0,200000.0,40.86222008,-77.83634646333333,333.981,-34.454,2,12,0.58,0.2,2,"""PSU_TestTrack"""
1722883529257783585,,16,,1722883529,257416963,"""SparkFun GPS GGA""","""GGA""",1722883529.0,300000.0,40.86221572,-77.83633510166666,333.992,-34.454,2,12,0.58,0.3,2,"""PSU_TestTrack"""
1722883529359161068,,17,,1722883529,358345270,"""SparkFun GPS GGA""","""GGA""",1722883529.0,400000.0,40.862211468333335,-77.8363237,333.99899999999997,-34.454,2,12,0.58,0.4,2,"""PSU_TestTrack"""
1722883529468817872,,18,,1722883529,468263149,"""SparkFun GPS GGA""","""GGA""",1722883529.0,500000.0,40.86220729833333,-77.8363122,334.006,-34.454,2,12,0.58,0.5,2,"""PSU_TestTrack"""
1722883529564640162,,19,,1722883529,564052820,"""SparkFun GPS GGA""","""GGA""",1722883529.0,600000.0,40.862203125,-77.836300695,334.014,-34.454,2,12,0.58,0.6,2,"""PSU_TestTrack"""
1722883529662230647,,20,,1722883529,661779642,"""SparkFun GPS GGA""","""GGA""",1722883529.0,700000.0,40.86219904666667,-77.83628899333333,334.016,-34.454,2,12,0.58,0.7,2,"""PSU_TestTrack"""
1722883529761542399,,21,,1722883529,760905265,"""SparkFun GPS GGA""","""GGA""",1722883529.0,800000.0,40.86219490166667,-77.8362772,334.022,-34.454,2,12,0.58,0.8,2,"""PSU_TestTrack"""
1722883529855530438,,22,,1722883529,855085372,"""SparkFun GPS GGA""","""GGA""",1722883529.0,900000.0,40.862190855,-77.83626528833334,334.031,-34.454,2,12,0.58,0.9,2,"""PSU_TestTrack"""
1722883529980715981,,23,,1722883529,979979276,"""SparkFun GPS GGA""","""GGA""",1722883530.0,0.0,40.86218681333333,-77.83625330333334,334.03499999999997,-34.454,2,12,0.58,1.0,2,"""PSU_TestTrack"""
1722883530170998981,,24,,1722883530,170405149,"""SparkFun GPS GGA""","""GGA""",1722883530.0,200000.0,40.86217730833334,-77.836230555,333.978,-34.454,4,12,0.58,1.2,6,"""PSU_TestTrack"""
1722883530274116165,,25,,1722883530,273421764,"""SparkFun GPS GGA""","""GGA""",1722883530.0,300000.0,40.86217349333333,-77.83621839333334,333.983,-34.454,4,12,0.58,0.3,6,"""PSU_TestTrack"""
1722883530371394009,,26,,1722883530,370766401,"""SparkFun GPS GGA""","""GGA""",1722883530.0,400000.0,40.862169725,-77.83620611833334,333.988,-34.454,4,12,0.58,0.4,6,"""PSU_TestTrack"""
1722883530468443317,,27,,1722883530,467939376,"""SparkFun GPS GGA""","""GGA""",1722883530.0,500000.0,40.862166015,-77.83619373,333.992,-34.454,4,12,0.58,0.5,6,"""PSU_TestTrack"""
1722883530568507911,,28,,1722883530,567847967,"""SparkFun GPS GGA""","""GGA""",1722883530.0,600000.0,40.862162426666664,-77.83618132166667,333.996,-34.454,4,12,0.58,0.6,6,"""PSU_TestTrack"""
1722883530670171799,,29,,1722883530,669244527,"""SparkFun GPS GGA""","""GGA""",1722883530.0,700000.0,40.86215885,-77.83616891166666,334.001,-34.454,4,12,0.58,0.7,6,"""PSU_TestTrack"""
1722883530756234484,,30,,1722883530,755836248,"""SparkFun GPS GGA""","""GGA""",1722883530.0,800000.0,40.862155363333336,-77.836156455,334.005,-34.454,4,12,0.58,0.8,6,"""PSU_TestTrack"""
1722883530862436690,,31,,1722883530,861959457,"""SparkFun GPS GGA""","""GGA""",1722883530.0,900000.0,40.86215194333333,-77.83614391666667,334.007,-34.454,4,12,0.58,0.9,6,"""PSU_TestTrack"""
1722883530975326964,,32,,1722883530,974709987,"""SparkFun GPS GGA""","""GGA""",1722883531.0,0.0,40.862148608333335,-77.83613136666666,334.009,-34.454,4,12,0.58,1.0,6,"""PSU_TestTrack"""
1722883531069109725,,33,,1722883531,68416833,"""SparkFun GPS GGA""","""GGA""",1722883531.0,100000.0,40.862145356666666,-77.83611878,334.01099999999997,-34.454,4,12,0.58,1.1,6,"""PSU_TestTrack"""
1722883531164410956,,34,,1722883531,163551807,"""SparkFun GPS GGA""","""GGA""",1722883531.0,200000.0,40.86214217,-77.836106235,334.013,-34.454,4,12,0.58,1.2,6,"""PSU_TestTrack"""
1722883531268316967,,35,,1722883531,267826080,"""SparkFun GPS GGA""","""GGA""",1722883531.0,300000.0,40.86213905666666,-77.83609364666667,334.015,-34.454,4,12,0.58,1.3,6,"""PSU_TestTrack"""
1722883531363876798,,36,,1722883531,363118886,"""SparkFun GPS GGA""","""GGA""",1722883531.0,400000.0,40.862136021666664,-77.83608100833334,334.016,-34.454,4,12,0.58,1.4,6,"""PSU_TestTrack"""
1722883531464440119,,37,,1722883531,463938474,"""SparkFun GPS GGA""","""GGA""",1722883531.0,500000.0,40.862133031666666,-77.83606841333334,334.017,-34.454,4,12,0.58,1.5,6,"""PSU_TestTrack"""
1722883531562856332,,38,,1722883531,562459468,"""SparkFun GPS GGA""","""GGA""",1722883531.0,600000.0,40.862130156666666,-77.83605581666667,334.02,-34.454,4,12,0.58,0.6,6,"""PSU_TestTrack"""
1722883531663491433,,39,,1722883531,662529706,"""SparkFun GPS GGA""","""GGA""",1722883531.0,700000.0,40.862127351666665,-77.83604323666667,334.026,-34.454,4,12,0.58,0.7,6,"""PSU_TestTrack"""
1722883531771544594,,40,,1722883531,770460367,"""SparkFun GPS GGA""","""GGA""",1722883531.0,800000.0,40.862124601666665,-77.83603057666667,334.03,-34.454,4,12,0.58,0.8,6,"""PSU_TestTrack"""
1722883531871046329,,41,,1722883531,870340108,"""SparkFun GPS GGA""","""GGA""",1722883531.0,900000.0,40.8621219,-77.83601791166667,334.032,-34.454,4,12,0.58,0.9,6,"""PSU_TestTrack"""
1722883531984924701,,42,,1722883531,984214067,"""SparkFun GPS GGA""","""GGA""",1722883532.0,0.0,40.8621193,-77.83600523833333,334.038,-34.454,4,12,0.58,1.0,6,"""PSU_TestTrack"""
1722883532169573927,,43,,1722883532,169048786,"""SparkFun GPS GGA""","""GGA""",1722883532.0,200000.0,40.862114235,-77.83597992333333,334.04699999999997,-34.454,4,12,0.58,1.2,6,"""PSU_TestTrack"""
1722883532269113255,,44,,1722883532,268534898,"""SparkFun GPS GGA""","""GGA""",1722883532.0,300000.0,40.862111813333335,-77.83596722833333,334.051,-34.454,4,12,0.58,1.3,6,"""PSU_TestTrack"""
1722883532375228253,,45,,1722883532,374135255,"""SparkFun GPS GGA""","""GGA""",1722883532.0,400000.0,40.86210942833333,-77.83595447833333,334.054,-34.454,4,12,0.58,1.4,6,"""PSU_TestTrack"""
1722883532474564875,,46,,1722883532,474039554,"""SparkFun GPS GGA""","""GGA""",1722883532.0,500000.0,40.86210712333333,-77.83594176666666,334.054,-34.454,4,12,0.58,0.5,6,"""PSU_TestTrack"""
1722883532559882920,,47,,1722883532,559179067,"""SparkFun GPS GGA""","""GGA""",1722883532.0,600000.0,40.862104923333334,-77.83592906333334,334.056,-34.454,4,12,0.58,0.6,6,"""PSU_TestTrack"""
1722883532661653422,,48,,1722883532,661250114,"""SparkFun GPS GGA""","""GGA""",1722883532.0,700000.0,40.862102736666664,-77.83591634,334.054,-34.454,4,12,0.58,0.7,6,"""PSU_TestTrack"""
1722883532767500952,,49,,1722883532,766453742,"""SparkFun GPS GGA""","""GGA""",1722883532.0,800000.0,40.86210062,-77.83590365333333,334.055,-34.454,4,12,0.58,0.8,6,"""PSU_TestTrack"""
1722883532865160424,,50,,1722883532,864069461,"""SparkFun GPS GGA""","""GGA""",1722883532.0,900000.0,40.86209855833334,-77.83589093333333,334.057,-34.454,4,12,0.58,0.9,6,"""PSU_TestTrack"""
1722883532975306203,,51,,1722883532,974233627,"""SparkFun GPS GGA""","""GGA""",1722883533.0,0.0,40.86209656,-77.83587818333334,334.058,-34.454,4,12,0.58,1.0,6,"""PSU_TestTrack"""
1722883533069104256,,52,,1722883533,68367242,"""SparkFun GPS GGA""","""GGA""",1722883533.0,100000.0,40.862094575,-77.835865415,334.063,-34.454,4,12,0.58,1.1,6,"""PSU_TestTrack"""
1722883533163752456,,53,,1722883533,163226366,"""SparkFun GPS GGA""","""GGA""",1722883533.0,200000.0,40.862092655,-77.83585259166667,334.068,-34.454,4,12,0.58,1.2,6,"""PSU_TestTrack"""
1722883533261904180,,54,,1722883533,261507034,"""SparkFun GPS GGA""","""GGA""",1722883533.0,300000.0,40.86209081166667,-77.83583974,334.072,-34.454,4,12,0.58,1.3,6,"""PSU_TestTrack"""
1722883533371448487,,55,,1722883533,370579481,"""SparkFun GPS GGA""","""GGA""",1722883533.0,400000.0,40.862089026666666,-77.83582686166666,334.075,-34.454,4,12,0.58,0.4,6,"""PSU_TestTrack"""
1722883533457530490,,56,,1722883533,457082271,"""SparkFun GPS GGA""","""GGA""",1722883533.0,500000.0,40.862087305,-77.83581403333334,334.078,-34.454,4,12,0.58,0.5,6,"""PSU_TestTrack"""
1722883533568235555,,57,,1722883533,567487955,"""SparkFun GPS GGA""","""GGA""",1722883533.0,600000.0,40.86208567833334,-77.83580117333334,334.08,-34.454,4,12,0.58,0.6,6,"""PSU_TestTrack"""
1722883533669202530,,58,,1722883533,668259382,"""SparkFun GPS GGA""","""GGA""",1722883533.0,700000.0,40.862084095,-77.83578826166666,334.082,-34.454,4,12,0.58,0.7,6,"""PSU_TestTrack"""
1722883533769570726,,59,,1722883533,768615007,"""SparkFun GPS GGA""","""GGA""",1722883533.0,800000.0,40.862082611666665,-77.83577532666666,334.086,-34.454,4,12,0.58,0.8,6,"""PSU_TestTrack"""
1722883533867467431,,60,,1722883533,867117166,"""SparkFun GPS GGA""","""GGA""",1722883533.0,900000.0,40.862081196666665,-77.835762335,334.087,-34.454,4,12,0.58,0.9,6,"""PSU_TestTrack"""
1722883533979999016,,61,,1722883533,979195356,"""SparkFun GPS GGA""","""GGA""",1722883534.0,0.0,40.86207982166667,-77.83574930333333,334.087,-34.454,4,12,0.58,1.0,6,"""PSU_TestTrack"""
1722883534065971099,,62,,1722883534,65534353,"""SparkFun GPS GGA""","""GGA""",1722883534.0,100000.0,40.862078535,-77.83573626833333,334.086,-34.454,4,12,0.58,1.1,6,"""PSU_TestTrack"""
1722883534162650034,,63,,1722883534,162040948,"""SparkFun GPS GGA""","""GGA""",1722883534.0,200000.0,40.86207734333333,-77.835723245,334.085,-34.454,4,12,0.58,1.2,6,"""PSU_TestTrack"""
1722883534269797602,,64,,1722883534,269320487,"""SparkFun GPS GGA""","""GGA""",1722883534.0,300000.0,40.86207612166667,-77.83571024833333,334.085,-34.454,4,12,0.58,1.3,6,"""PSU_TestTrack"""
1722883534364094379,,65,,1722883534,363140821,"""SparkFun GPS GGA""","""GGA""",1722883534.0,400000.0,40.862075015,-77.83569724333333,334.087,-34.454,4,12,0.58,1.4,6,"""PSU_TestTrack"""
1722883534461919590,,66,,1722883534,461416959,"""SparkFun GPS GGA""","""GGA""",1722883534.0,500000.0,40.862074015,-77.83568411666667,334.091,-34.454,4,12,0.58,0.5,6,"""PSU_TestTrack"""
1722883534563905079,,67,,1722883534,563140392,"""SparkFun GPS GGA""","""GGA""",1722883534.0,600000.0,40.862072955,-77.83567103666667,334.098,-34.454,4,12,0.58,0.6,6,"""PSU_TestTrack"""
1722883534661987060,,68,,1722883534,661451578,"""SparkFun GPS GGA""","""GGA""",1722883534.0,700000.0,40.86207192166667,-77.83565794333333,334.105,-34.454,4,12,0.58,0.7,6,"""PSU_TestTrack"""
1722883534763718351,,69,,1722883534,762948751,"""SparkFun GPS GGA""","""GGA""",1722883534.0,800000.0,40.86207095666666,-77.835644815,334.114,-34.454,4,12,0.58,0.8,6,"""PSU_TestTrack"""
1722883534865002583,,70,,1722883534,864035367,"""SparkFun GPS GGA""","""GGA""",1722883534.0,900000.0,40.86207008,-77.83563162333333,334.122,-34.454,4,12,0.58,0.9,6,"""PSU_TestTrack"""
1722883534970638001,,71,,1722883534,970186233,"""SparkFun GPS GGA""","""GGA""",1722883535.0,0.0,40.862069215,-77.83561843333334,334.128,-34.454,4,12,0.58,1.0,6,"""PSU_TestTrack"""
1722883535068285246,,72,,1722883535,67778825,"""SparkFun GPS GGA""","""GGA""",1722883535.0,100000.0,40.862068451666666,-77.835605255,334.134,-34.454,4,12,0.58,1.1,6,"""PSU_TestTrack"""
1722883535168661985,,73,,1722883535,168007850,"""SparkFun GPS GGA""","""GGA""",1722883535.0,200000.0,40.862067796666665,-77.83559209333333,334.138,-34.454,4,12,0.58,1.2,6,"""PSU_TestTrack"""
1722883535261410036,,74,,1722883535,260778903,"""SparkFun GPS GGA""","""GGA""",1722883535.0,300000.0,40.862067171666666,-77.83557897166666,334.142,-34.454,4,12,0.58,0.3,6,"""PSU_TestTrack"""
1722883535366203975,,75,,1722883535,365685701,"""SparkFun GPS GGA""","""GGA""",1722883535.0,400000.0,40.86206662666667,-77.83556575166666,334.143,-34.454,4,12,0.58,0.4,6,"""PSU_TestTrack"""
1722883535468341453,,76,,1722883535,467882633,"""SparkFun GPS GGA""","""GGA""",1722883535.0,500000.0,40.86206612833333,-77.83555250333333,334.146,-34.454,4,12,0.58,0.5,6,"""PSU_TestTrack"""
1722883535571453592,,77,,1722883535,570313453,"""SparkFun GPS GGA""","""GGA""",1722883535.0,600000.0,40.862065656666665,-77.83553930333333,334.151,-34.454,4,12,0.58,0.6,6,"""PSU_TestTrack"""
1722883535669959627,,78,,1722883535,668985128,"""SparkFun GPS GGA""","""GGA""",1722883535.0,700000.0,40.86206528,-77.83552609666667,334.157,-34.454,4,12,0.58,0.7,6,"""PSU_TestTrack"""
1722883535771032211,,79,,1722883535,770279884,"""SparkFun GPS GGA""","""GGA""",1722883535.0,800000.0,40.862065003333335,-77.83551284,334.161,-34.454,4,12,0.58,0.8,6,"""PSU_TestTrack"""
1722883535869213293,,80,,1722883535,868590831,"""SparkFun GPS GGA""","""GGA""",1722883535.0,900000.0,40.86206479,-77.83549957333334,334.165,-34.454,4,12,0.58,0.9,6,"""PSU_TestTrack"""
1722883535999896285,,81,,1722883535,999415397,"""SparkFun GPS GGA""","""GGA""",1722883536.0,0.0,40.862064665,-77.83548630333334,334.169,-34.454,4,12,0.58,1.0,6,"""PSU_TestTrack"""
1722883536164202366,,82,,1722883536,163232803,"""SparkFun GPS GGA""","""GGA""",1722883536.0,200000.0,40.862064665,-77.83545977666667,334.17699999999996,-34.454,4,12,0.58,1.2,6,"""PSU_TestTrack"""
1722883536274195185,,83,,1722883536,273232698,"""SparkFun GPS GGA""","""GGA""",1722883536.0,300000.0,40.86206476833333,-77.83544647833334,334.178,-34.454,4,12,0.58,1.3,6,"""PSU_TestTrack"""
1722883536370479564,,84,,1722883536,369812488,"""SparkFun GPS GGA""","""GGA""",1722883536.0,400000.0,40.8620649,-77.835433155,334.181,-34.454,4,12,0.58,0.4,6,"""PSU_TestTrack"""
1722883536468686583,,85,,1722883536,468230247,"""SparkFun GPS GGA""","""GGA""",1722883536.0,500000.0,40.86206511666666,-77.83541984333333,334.183,-34.454,4,12,0.58,0.5,6,"""PSU_TestTrack"""
1722883536568953527,,86,,1722883536,568205833,"""SparkFun GPS GGA""","""GGA""",1722883536.0,600000.0,40.86206543,-77.83540651833333,334.183,-34.454,4,12,0.58,0.6,6,"""PSU_TestTrack"""
1722883536669611293,,87,,1722883536,669117212,"""SparkFun GPS GGA""","""GGA""",1722883536.0,700000.0,40.86206578666667,-77.835393205,334.18399999999997,-34.454,4,12,0.58,0.7,6,"""PSU_TestTrack"""
1722883536767954618,,88,,1722883536,767467975,"""SparkFun GPS GGA""","""GGA""",1722883536.0,800000.0,40.86206619833333,-77.83537992,334.186,-34.454,4,12,0.58,0.8,6,"""PSU_TestTrack"""
1722883536869749525,,89,,1722883536,868764162,"""SparkFun GPS GGA""","""GGA""",1722883536.0,900000.0,40.862066715,-77.83536662,334.188,-34.454,4,12,0.58,0.9,6,"""PSU_TestTrack"""
1722883536973982251,,90,,1722883536,973486661,"""SparkFun GPS GGA""","""GGA""",1722883537.0,0.0,40.86206725666667,-77.83535332666666,334.191,-34.454,4,12,0.58,1.0,6,"""PSU_TestTrack"""
1722883537059380838,,91,,1722883537,58849334,"""SparkFun GPS GGA""","""GGA""",1722883537.0,100000.0,40.862067878333335,-77.83534003,334.19599999999997,-34.454,4,12,0.58,1.1,6,"""PSU_TestTrack"""
1722883537163505566,,92,,1722883537,163022279,"""SparkFun GPS GGA""","""GGA""",1722883537.0,200000.0,40.862068545,-77.83532669333333,334.202,-34.454,4,12,0.58,1.2,6,"""PSU_TestTrack"""
1722883537261788965,,93,,1722883537,261089563,"""SparkFun GPS GGA""","""GGA""",1722883537.0,300000.0,40.86206928,-77.83531333666667,334.20799999999997,-34.454,4,12,0.58,1.3,6,"""PSU_TestTrack"""
1722883537361091035,,94,,1722883537,360325336,"""SparkFun GPS GGA""","""GGA""",1722883537.0,400000.0,40.86207009,-77.83529999666666,334.214,-34.454,4,12,0.58,1.4,6,"""PSU_TestTrack"""
1722883537462016372,,95,,1722883537,460958242,"""SparkFun GPS GGA""","""GGA""",1722883537.0,500000.0,40.86207093,-77.83528664833334,334.221,-34.454,4,12,0.58,1.5,6,"""PSU_TestTrack"""
1722883537560401498,,96,,1722883537,559917449,"""SparkFun GPS GGA""","""GGA""",1722883537.0,600000.0,40.8620719,-77.83527336666667,334.228,-34.454,4,12,0.58,1.6,6,"""PSU_TestTrack"""
1722883537664120409,,97,,1722883537,663551568,"""SparkFun GPS GGA""","""GGA""",1722883537.0,700000.0,40.86207288833333,-77.83526006166667,334.235,-34.454,4,12,0.58,1.7,6,"""PSU_TestTrack"""
1722883537759481695,,98,,1722883537,758964061,"""SparkFun GPS GGA""","""GGA""",1722883537.0,800000.0,40.86207398333333,-77.83524673,334.238,-34.454,4,12,0.58,0.8,6,"""PSU_TestTrack"""
1722883537858856203,,99,,1722883537,858448028,"""SparkFun GPS GGA""","""GGA""",1722883537.0,900000.0,40.86207513,-77.83523339166666,334.242,-34.454,4,12,0.58,0.9,6,"""PSU_TestTrack"""
1722883537962492045,,100,,1722883537,961825132,"""SparkFun GPS GGA""","""GGA""",1722883538.0,0.0,40.862076343333335,-77.83522009833334,334.246,-34.454,4,12,0.58,1.0,6,"""PSU_TestTrack"""
1722883538065137011,,101,,1722883538,64701080,"""SparkFun GPS GGA""","""GGA""",1722883538.0,100000.0,40.862077645,-77.83520676833334,334.248,-34.454,4,12,0.58,1.1,6,"""PSU_TestTrack"""
1722883538167744492,,102,,1722883538,167120218,"""SparkFun GPS GGA""","""GGA""",1722883538.0,200000.0,40.86207903,-77.83519348166666,334.251,-34.454,4,12,0.58,1.2,6,"""PSU_TestTrack"""
1722883538265034511,,103,,1722883538,264426708,"""SparkFun GPS GGA""","""GGA""",1722883538.0,300000.0,40.86208048333334,-77.83518020333334,334.252,-34.454,4,12,0.58,0.3,6,"""PSU_TestTrack"""
1722883538363022988,,104,,1722883538,362385034,"""SparkFun GPS GGA""","""GGA""",1722883538.0,400000.0,40.862082,-77.83516696333334,334.255,-34.454,4,12,0.58,0.4,6,"""PSU_TestTrack"""
1722883538463862515,,105,,1722883538,463436365,"""SparkFun GPS GGA""","""GGA""",1722883538.0,500000.0,40.862083608333336,-77.83515377333333,334.26,-34.454,4,12,0.58,0.5,6,"""PSU_TestTrack"""
1722883538563602273,,106,,1722883538,562979221,"""SparkFun GPS GGA""","""GGA""",1722883538.0,600000.0,40.86208529333334,-77.83514053666667,334.265,-34.454,4,12,0.58,0.6,6,"""PSU_TestTrack"""
1722883538662362803,,107,,1722883538,661880493,"""SparkFun GPS GGA""","""GGA""",1722883538.0,700000.0,40.862087071666664,-77.83512729333333,334.272,-34.454,4,12,0.58,0.7,6,"""PSU_TestTrack"""
1722883538764738440,,108,,1722883538,764158725,"""SparkFun GPS GGA""","""GGA""",1722883538.0,800000.0,40.86208892,-77.835114015,334.279,-34.454,4,12,0.58,0.8,6,"""PSU_TestTrack"""
1722883538857172358,,109,,1722883538,856604337,"""SparkFun GPS GGA""","""GGA""",1722883538.0,900000.0,40.862090828333336,-77.83510082,334.287,-34.454,4,12,0.58,0.9,6,"""PSU_TestTrack"""
1722883538977032112,,110,,1722883538,975878000,"""SparkFun GPS GGA""","""GGA""",1722883539.0,0.0,40.86209281,-77.83508761166667,334.293,-34.454,4,12,0.58,1.0,6,"""PSU_TestTrack"""
1722883539071924610,,111,,1722883539,71501255,"""SparkFun GPS GGA""","""GGA""",1722883539.0,100000.0,40.86209486333333,-77.83507442833333,334.298,-34.454,4,12,0.58,1.1,6,"""PSU_TestTrack"""
1722883539162261714,,112,,1722883539,161730289,"""SparkFun GPS GGA""","""GGA""",1722883539.0,200000.0,40.862097015,-77.83506126166667,334.304,-34.454,4,12,0.58,1.2,6,"""PSU_TestTrack"""
1722883539262172967,,113,,1722883539,261877059,"""SparkFun GPS GGA""","""GGA""",1722883539.0,300000.0,40.86209921166667,-77.83504808666666,334.307,-34.454,4,12,0.58,1.3,6,"""PSU_TestTrack"""
1722883539364226664,,114,,1722883539,363726615,"""SparkFun GPS GGA""","""GGA""",1722883539.0,400000.0,40.86210149,-77.83503492166666,334.31,-34.454,4,12,0.58,1.4,6,"""PSU_TestTrack"""
1722883539468051161,,115,,1722883539,467707395,"""SparkFun GPS GGA""","""GGA""",1722883539.0,500000.0,40.86210386333333,-77.83502181833333,334.313,-34.454,4,12,0.58,1.5,6,"""PSU_TestTrack"""
1722883539561714157,,116,,1722883539,561263799,"""SparkFun GPS GGA""","""GGA""",1722883539.0,600000.0,40.86210629166666,-77.83500872833334,334.315,-34.454,4,12,0.58,0.6,6,"""PSU_TestTrack"""
1722883539667290006,,117,,1722883539,666599512,"""SparkFun GPS GGA""","""GGA""",1722883539.0,700000.0,40.862108785,-77.83499567166666,334.316,-34.454,4,12,0.58,0.7,6,"""PSU_TestTrack"""
1722883539756927392,,118,,1722883539,756546497,"""SparkFun GPS GGA""","""GGA""",1722883539.0,800000.0,40.862111365,-77.83498260166667,334.32,-34.454,4,12,0.58,0.8,6,"""PSU_TestTrack"""
1722883539864525798,,119,,1722883539,864019155,"""SparkFun GPS GGA""","""GGA""",1722883539.0,900000.0,40.86211408,-77.834969595,334.32599999999996,-34.454,4,12,0.58,0.9,6,"""PSU_TestTrack"""
1722883539979661239,,120,,1722883539,978853464,"""SparkFun GPS GGA""","""GGA""",1722883540.0,0.0,40.86211684,-77.83495657333333,334.33299999999997,-34.454,4,12,0.58,1.0,6,"""PSU_TestTrack"""
1722883540164275027,,121,,1722883540,163684129,"""SparkFun GPS GGA""","""GGA""",1722883540.0,200000.0,40.862122568333334,-77.83493061333333,334.347,-34.454,4,12,0.58,1.2,6,"""PSU_TestTrack"""
1722883540267018113,,122,,1722883540,266658306,"""SparkFun GPS GGA""","""GGA""",1722883540.0,300000.0,40.86212548333334,-77.834917595,334.349,-34.454,4,12,0.58,1.3,6,"""PSU_TestTrack"""
1722883540366576537,,123,,1722883540,365782022,"""SparkFun GPS GGA""","""GGA""",1722883540.0,400000.0,40.86212855833333,-77.83490466,334.356,-34.454,4,12,0.58,1.4,6,"""PSU_TestTrack"""
1722883540464115011,,124,,1722883540,463512182,"""SparkFun GPS GGA""","""GGA""",1722883540.0,500000.0,40.86213171666667,-77.83489177,334.36199999999997,-34.454,4,12,0.58,1.5,6,"""PSU_TestTrack"""
1722883540566562923,,125,,1722883540,565995931,"""SparkFun GPS GGA""","""GGA""",1722883540.0,600000.0,40.862134876666666,-77.83487885666666,334.365,-34.454,4,12,0.58,1.6,6,"""PSU_TestTrack"""
1722883540656299717,,126,,1722883540,655961275,"""SparkFun GPS GGA""","""GGA""",1722883540.0,700000.0,40.862138185,-77.83486599833333,334.367,-34.454,4,12,0.58,1.7,6,"""PSU_TestTrack"""
1722883540763973601,,127,,1722883540,763310909,"""SparkFun GPS GGA""","""GGA""",1722883540.0,800000.0,40.862141495,-77.83485313333334,334.368,-34.454,4,12,0.58,0.8,6,"""PSU_TestTrack"""
1722883540866808555,,128,,1722883540,865951299,"""SparkFun GPS GGA""","""GGA""",1722883540.0,900000.0,40.86214488833333,-77.83484033666667,334.36899999999997,-34.454,4,12,0.58,0.9,6,"""PSU_TestTrack"""
1722883540973852266,,129,,1722883540,973063707,"""SparkFun GPS GGA""","""GGA""",1722883541.0,0.0,40.862148375,-77.83482759166667,334.37,-34.454,4,12,0.58,1.0,6,"""PSU_TestTrack"""
1722883541063024918,,130,,1722883541,62493324,"""SparkFun GPS GGA""","""GGA""",1722883541.0,100000.0,40.86215191666667,-77.83481487833333,334.372,-34.454,4,12,0.58,1.1,6,"""PSU_TestTrack"""
1722883541176810645,,131,,1722883541,176130294,"""SparkFun GPS GGA""","""GGA""",1722883541.0,200000.0,40.862155523333335,-77.83480217666667,334.376,-34.454,4,12,0.58,1.2,6,"""PSU_TestTrack"""
1722883541265908094,,132,,1722883541,265086412,"""SparkFun GPS GGA""","""GGA""",1722883541.0,300000.0,40.86215919333333,-77.83478942666666,334.378,-34.454,4,12,0.57,1.3,6,"""PSU_TestTrack"""
1722883541363270698,,133,,1722883541,362826585,"""SparkFun GPS GGA""","""GGA""",1722883541.0,400000.0,40.862162981666664,-77.83477674166667,334.383,-34.454,4,12,0.57,1.4,6,"""PSU_TestTrack"""
1722883541464007540,,134,,1722883541,463558435,"""SparkFun GPS GGA""","""GGA""",1722883541.0,500000.0,40.86216677666667,-77.83476406833333,334.38599999999997,-34.454,4,12,0.57,1.5,6,"""PSU_TestTrack"""
1722883541564985268,,135,,1722883541,564385652,"""SparkFun GPS GGA""","""GGA""",1722883541.0,600000.0,40.862170705,-77.834751455,334.392,-34.454,4,12,0.57,0.6,6,"""PSU_TestTrack"""
1722883541662623212,,136,,1722883541,662256240,"""SparkFun GPS GGA""","""GGA""",1722883541.0,700000.0,40.862174636666666,-77.83473886833333,334.397,-34.454,4,12,0.57,0.7,6,"""PSU_TestTrack"""
1722883541766974218,,137,,1722883541,766016006,"""SparkFun GPS GGA""","""GGA""",1722883541.0,800000.0,40.862178585,-77.834726305,334.403,-34.454,4,12,0.57,0.8,6,"""PSU_TestTrack"""
1722883541864922889,,138,,1722883541,864570617,"""SparkFun GPS GGA""","""GGA""",1722883541.0,900000.0,40.862182651666664,-77.83471375666667,334.405,-34.454,4,12,0.57,0.9,6,"""PSU_TestTrack"""
1722883541981980119,,139,,1722883541,980565786,"""SparkFun GPS GGA""","""GGA""",1722883542.0,0.0,40.86218676,-77.834701215,334.408,-34.454,4,12,0.57,1.0,6,"""PSU_TestTrack"""
1722883542170876345,,140,,1722883542,169995069,"""SparkFun GPS GGA""","""GGA""",1722883542.0,200000.0,40.862195148333335,-77.83467628666666,334.414,-34.454,4,12,0.57,0.2,6,"""PSU_TestTrack"""
1722883542266419216,,141,,1722883542,265154361,"""SparkFun GPS GGA""","""GGA""",1722883542.0,300000.0,40.862199455,-77.834663885,334.417,-34.454,4,12,0.57,0.3,6,"""PSU_TestTrack"""
1722883542362862675,,142,,1722883542,362460613,"""SparkFun GPS GGA""","""GGA""",1722883542.0,400000.0,40.862203835,-77.83465153333333,334.423,-34.454,4,12,0.57,0.4,6,"""PSU_TestTrack"""
1722883542455189974,,143,,1722883542,454888105,"""SparkFun GPS GGA""","""GGA""",1722883542.0,500000.0,40.862208276666664,-77.83463920666667,334.429,-34.454,4,12,0.57,0.5,6,"""PSU_TestTrack"""
1722883542567361393,,144,,1722883542,566613435,"""SparkFun GPS GGA""","""GGA""",1722883542.0,600000.0,40.86221280833333,-77.83462687833334,334.43399999999997,-34.454,4,12,0.57,0.6,6,"""PSU_TestTrack"""
1722883542663773894,,145,,1722883542,663397073,"""SparkFun GPS GGA""","""GGA""",1722883542.0,700000.0,40.86221736833333,-77.83461466166666,334.443,-34.454,4,12,0.57,0.7,6,"""PSU_TestTrack"""
1722883542762743654,,146,,1722883542,762090921,"""SparkFun GPS GGA""","""GGA""",1722883542.0,800000.0,40.86222198,-77.83460246,334.454,-34.454,4,12,0.57,0.8,6,"""PSU_TestTrack"""
1722883542863702264,,147,,1722883542,863151788,"""SparkFun GPS GGA""","""GGA""",1722883542.0,900000.0,40.86222668,-77.83459029166667,334.464,-34.454,4,12,0.57,0.9,6,"""PSU_TestTrack"""
1722883542977050561,,148,,1722883542,976024866,"""SparkFun GPS GGA""","""GGA""",1722883543.0,0.0,40.862231385,-77.83457803666667,334.472,-34.454,4,12,0.57,1.0,6,"""PSU_TestTrack"""
1722883543074709656,,149,,1722883543,73761224,"""SparkFun GPS GGA""","""GGA""",1722883543.0,100000.0,40.862236198333335,-77.8345659,334.481,-34.454,4,12,0.57,1.1,6,"""PSU_TestTrack"""
1722883543166685749,,150,,1722883543,166027069,"""SparkFun GPS GGA""","""GGA""",1722883543.0,200000.0,40.86224106666667,-77.834553815,334.486,-34.454,4,12,0.57,1.2,6,"""PSU_TestTrack"""
1722883543263765546,,151,,1722883543,263137102,"""SparkFun GPS GGA""","""GGA""",1722883543.0,300000.0,40.862245970000004,-77.83454175166666,334.493,-34.454,4,12,0.57,1.3,6,"""PSU_TestTrack"""
1722883543355932161,,152,,1722883543,355379819,"""SparkFun GPS GGA""","""GGA""",1722883543.0,400000.0,40.86225094,-77.83452972666667,334.497,-34.454,4,12,0.57,1.4,6,"""PSU_TestTrack"""
1722883543466113999,,153,,1722883543,465686798,"""SparkFun GPS GGA""","""GGA""",1722883543.0,500000.0,40.86225589166666,-77.83451781,334.503,-34.454,4,12,0.57,1.5,6,"""PSU_TestTrack"""
1722883543565849905,,154,,1722883543,565502882,"""SparkFun GPS GGA""","""GGA""",1722883543.0,600000.0,40.862260965,-77.83450595,334.508,-34.454,4,12,0.57,0.6,6,"""PSU_TestTrack"""
1722883543668016093,,155,,1722883543,667562007,"""SparkFun GPS GGA""","""GGA""",1722883543.0,700000.0,40.862266086666665,-77.83449409333333,334.517,-34.454,4,12,0.57,0.7,6,"""PSU_TestTrack"""
1722883543763835578,,156,,1722883543,763327836,"""SparkFun GPS GGA""","""GGA""",1722883543.0,800000.0,40.862271305,-77.834482095,334.522,-34.454,4,12,0.57,0.8,6,"""PSU_TestTrack"""
1722883543864293642,,157,,1722883543,863783359,"""SparkFun GPS GGA""","""GGA""",1722883543.0,900000.0,40.86227658333333,-77.83447021,334.528,-34.454,4,12,0.57,0.9,6,"""PSU_TestTrack"""
1722883543977803125,,158,,1722883543,977004766,"""SparkFun GPS GGA""","""GGA""",1722883544.0,0.0,40.862281843333335,-77.83445836166666,334.531,-34.454,4,12,0.57,1.0,6,"""PSU_TestTrack"""
1722883544065851024,,159,,1722883544,65352678,"""SparkFun GPS GGA""","""GGA""",1722883544.0,100000.0,40.86228715,-77.83444671166667,334.536,-34.454,4,12,0.57,1.1,6,"""PSU_TestTrack"""
1722883544175253690,,160,,1722883544,174067258,"""SparkFun GPS GGA""","""GGA""",1722883544.0,200000.0,40.862292481666664,-77.834435065,334.539,-34.454,4,12,0.57,1.2,6,"""PSU_TestTrack"""
1722883544257452350,,161,,1722883544,257177829,"""SparkFun GPS GGA""","""GGA""",1722883544.0,300000.0,40.862297868333336,-77.83442342,334.543,-34.454,4,12,0.57,1.3,6,"""PSU_TestTrack"""
1722883544364942673,,162,,1722883544,364421129,"""SparkFun GPS GGA""","""GGA""",1722883544.0,400000.0,40.862303368333336,-77.83441177,334.55199999999996,-34.454,4,12,0.57,1.4,6,"""PSU_TestTrack"""
1722883544467280379,,163,,1722883544,466613531,"""SparkFun GPS GGA""","""GGA""",1722883544.0,500000.0,40.862308875,-77.834400045,334.558,-34.454,4,12,0.57,1.5,6,"""PSU_TestTrack"""
1722883544563487081,,164,,1722883544,562839746,"""SparkFun GPS GGA""","""GGA""",1722883544.0,600000.0,40.86231443166667,-77.83438839666667,334.563,-34.454,4,12,0.57,1.6,6,"""PSU_TestTrack"""
1722883544663565987,,165,,1722883544,663012266,"""SparkFun GPS GGA""","""GGA""",1722883544.0,700000.0,40.86231999333334,-77.83437694166666,334.572,-34.454,4,12,0.57,1.7,6,"""PSU_TestTrack"""
1722883544762996367,,166,,1722883544,762415170,"""SparkFun GPS GGA""","""GGA""",1722883544.0,800000.0,40.86232543,-77.83436550833333,334.582,-34.454,4,12,0.57,0.8,6,"""PSU_TestTrack"""
1722883544859142583,,167,,1722883544,858765840,"""SparkFun GPS GGA""","""GGA""",1722883544.0,900000.0,40.86233103833333,-77.83435402333333,334.59499999999997,-34.454,4,12,0.57,0.9,6,"""PSU_TestTrack"""
1722883544972295305,,168,,1722883544,971705913,"""SparkFun GPS GGA""","""GGA""",1722883545.0,0.0,40.86233678,-77.834342435,334.602,-34.454,4,12,0.57,1.0,6,"""PSU_TestTrack"""
1722883545068843045,,169,,1722883545,68303346,"""SparkFun GPS GGA""","""GGA""",1722883545.0,100000.0,40.862342595,-77.83433089333333,334.611,-34.454,4,12,0.57,1.1,6,"""PSU_TestTrack"""
1722883545159732697,,170,,1722883545,159213781,"""SparkFun GPS GGA""","""GGA""",1722883545.0,200000.0,40.862348415,-77.834319475,334.617,-34.454,4,12,0.57,1.2,6,"""PSU_TestTrack"""
1722883545263573878,,171,,1722883545,263027906,"""SparkFun GPS GGA""","""GGA""",1722883545.0,300000.0,40.862354231666664,-77.834308075,334.616,-34.454,4,12,0.57,1.3,6,"""PSU_TestTrack"""
1722883545366008869,,172,,1722883545,365392923,"""SparkFun GPS GGA""","""GGA""",1722883545.0,400000.0,40.86236006833333,-77.834296835,334.617,-34.454,4,12,0.57,1.4,6,"""PSU_TestTrack"""
1722883545463851296,,173,,1722883545,463326692,"""SparkFun GPS GGA""","""GGA""",1722883545.0,500000.0,40.86236582833333,-77.83428569833333,334.618,-34.454,4,12,0.57,1.5,6,"""PSU_TestTrack"""
1722883545568677748,,174,,1722883545,568034410,"""SparkFun GPS GGA""","""GGA""",1722883545.0,600000.0,40.86237162166667,-77.834274525,334.62,-34.454,4,12,0.57,0.6,6,"""PSU_TestTrack"""
1722883545660815500,,175,,1722883545,660188198,"""SparkFun GPS GGA""","""GGA""",1722883545.0,700000.0,40.862377515,-77.83426326,334.626,-34.454,4,12,0.57,0.7,6,"""PSU_TestTrack"""
1722883545762687476,,176,,1722883545,761982917,"""SparkFun GPS GGA""","""GGA""",1722883545.0,800000.0,40.86238352833333,-77.83425201166666,334.63599999999997,-34.454,4,12,0.57,0.8,6,"""PSU_TestTrack"""
1722883545862391324,,177,,1722883545,861953258,"""SparkFun GPS GGA""","""GGA""",1722883545.0,900000.0,40.86238962833333,-77.834240765,334.645,-34.454,4,12,0.57,0.9,6,"""PSU_TestTrack"""
1722883545971475897,,178,,1722883545,969866752,"""SparkFun GPS GGA""","""GGA""",1722883546.0,0.0,40.862395721666665,-77.83422963666666,334.653,-34.454,4,12,0.57,1.0,6,"""PSU_TestTrack"""
1722883546061657915,,179,,1722883546,61135292,"""SparkFun GPS GGA""","""GGA""",1722883546.0,100000.0,40.86240182833333,-77.83421860666667,334.661,-34.454,4,12,0.57,1.1,6,"""PSU_TestTrack"""
1722883546163713825,,180,,1722883546,163144111,"""SparkFun GPS GGA""","""GGA""",1722883546.0,200000.0,40.862407955,-77.83420764166667,334.667,-34.454,4,12,0.57,0.2,6,"""PSU_TestTrack"""
1722883546263515884,,181,,1722883546,262412309,"""SparkFun GPS GGA""","""GGA""",1722883546.0,300000.0,40.86241413,-77.834196665,334.67199999999997,-34.454,4,12,0.57,0.3,6,"""PSU_TestTrack"""
1722883546361714208,,182,,1722883546,361197233,"""SparkFun GPS GGA""","""GGA""",1722883546.0,400000.0,40.86242030333333,-77.83418565166667,334.678,-34.454,4,12,0.57,0.4,6,"""PSU_TestTrack"""
1722883546462211945,,183,,1722883546,461199522,"""SparkFun GPS GGA""","""GGA""",1722883546.0,500000.0,40.862426488333334,-77.83417465666666,334.685,-34.454,4,12,0.57,0.5,6,"""PSU_TestTrack"""
1722883546565502750,,184,,1722883546,564456462,"""SparkFun GPS GGA""","""GGA""",1722883546.0,600000.0,40.862432645,-77.83416374,334.695,-34.454,4,12,0.57,0.6,6,"""PSU_TestTrack"""
1722883546660589143,,185,,1722883546,660053491,"""SparkFun GPS GGA""","""GGA""",1722883546.0,700000.0,40.86243881,-77.83415279666667,334.704,-34.454,4,12,0.57,0.7,6,"""PSU_TestTrack"""
1722883546760563527,,186,,1722883546,759939908,"""SparkFun GPS GGA""","""GGA""",1722883546.0,800000.0,40.86244499666667,-77.83414184666667,334.71299999999997,-34.454,4,12,0.57,0.8,6,"""PSU_TestTrack"""
1722883546861990193,,187,,1722883546,861573934,"""SparkFun GPS GGA""","""GGA""",1722883546.0,900000.0,40.86245123166667,-77.834130995,334.723,-34.454,4,12,0.57,0.9,6,"""PSU_TestTrack"""
1722883546963653462,,188,,1722883546,963250637,"""SparkFun GPS GGA""","""GGA""",1722883547.0,0.0,40.862457453333334,-77.83412014333334,334.73199999999997,-34.454,4,12,0.57,1.0,6,"""PSU_TestTrack"""
1722883547067954673,,189,,1722883547,67507266,"""SparkFun GPS GGA""","""GGA""",1722883547.0,100000.0,40.86246368166667,-77.83410932333334,334.74,-34.454,4,12,0.57,1.1,6,"""PSU_TestTrack"""
1722883547166171438,,190,,1722883547,165691137,"""SparkFun GPS GGA""","""GGA""",1722883547.0,200000.0,40.862469903333334,-77.834098565,334.747,-34.454,4,12,0.57,1.2,6,"""PSU_TestTrack"""
1722883547259815860,,191,,1722883547,259358406,"""SparkFun GPS GGA""","""GGA""",1722883547.0,300000.0,40.862476066666666,-77.83408786333334,334.751,-34.454,4,12,0.57,1.3,6,"""PSU_TestTrack"""
1722883547365462611,,192,,1722883547,365059614,"""SparkFun GPS GGA""","""GGA""",1722883547.0,400000.0,40.86248219666667,-77.834077265,334.757,-34.454,4,12,0.57,1.4,6,"""PSU_TestTrack"""
1722883547475284069,,193,,1722883547,474187850,"""SparkFun GPS GGA""","""GGA""",1722883547.0,500000.0,40.862488281666664,-77.83406668333333,334.763,-34.454,4,12,0.57,1.5,6,"""PSU_TestTrack"""
1722883547563106650,,194,,1722883547,562757492,"""SparkFun GPS GGA""","""GGA""",1722883547.0,600000.0,40.86249437,-77.834056205,334.77,-34.454,4,12,0.57,0.6,6,"""PSU_TestTrack"""
1722883547658889501,,195,,1722883547,658446550,"""SparkFun GPS GGA""","""GGA""",1722883547.0,700000.0,40.862500391666664,-77.83404578333334,334.78,-34.454,4,12,0.57,0.7,6,"""PSU_TestTrack"""
1722883547764080826,,196,,1722883547,763288497,"""SparkFun GPS GGA""","""GGA""",1722883547.0,800000.0,40.862506368333335,-77.8340354,334.788,-34.454,4,12,0.57,0.8,6,"""PSU_TestTrack"""
1722883547853398659,,197,,1722883547,852881431,"""SparkFun GPS GGA""","""GGA""",1722883547.0,900000.0,40.86251232666667,-77.83402511,334.795,-34.454,4,12,0.57,0.9,6,"""PSU_TestTrack"""
1722883547978608171,,198,,1722883547,976955890,"""SparkFun GPS GGA""","""GGA""",1722883548.0,0.0,40.862518205,-77.83401489166667,334.804,-34.454,4,12,0.57,1.0,6,"""PSU_TestTrack"""
1722883548061903932,,199,,1722883548,61504364,"""SparkFun GPS GGA""","""GGA""",1722883548.0,100000.0,40.862524021666665,-77.8340048,334.81,-34.454,4,12,0.57,1.1,6,"""PSU_TestTrack"""
1722883548176089754,,200,,1722883548,175654411,"""SparkFun GPS GGA""","""GGA""",1722883548.0,200000.0,40.862529771666665,-77.83399486333333,334.818,-34.454,4,12,0.57,1.2,6,"""PSU_TestTrack"""
1722883548268083520,,201,,1722883548,267631292,"""SparkFun GPS GGA""","""GGA""",1722883548.0,300000.0,40.862535545,-77.83398496166667,334.822,-34.454,4,12,0.57,1.3,6,"""PSU_TestTrack"""
1722883548364435988,,202,,1722883548,364032745,"""SparkFun GPS GGA""","""GGA""",1722883548.0,400000.0,40.86254125833333,-77.83397511,334.818,-34.454,4,12,0.57,0.4,6,"""PSU_TestTrack"""
1722883548463673393,,203,,1722883548,463229894,"""SparkFun GPS GGA""","""GGA""",1722883548.0,500000.0,40.86254679333334,-77.83396548666667,334.816,-34.454,4,12,0.57,0.5,6,"""PSU_TestTrack"""
1722883548560373005,,204,,1722883548,560024261,"""SparkFun GPS GGA""","""GGA""",1722883548.0,600000.0,40.86255222166667,-77.83395608833334,334.816,-34.454,4,12,0.57,0.6,6,"""PSU_TestTrack"""
1722883548664106784,,205,,1722883548,663633346,"""SparkFun GPS GGA""","""GGA""",1722883548.0,700000.0,40.86255755166667,-77.833946835,334.815,-34.454,4,12,0.57,0.7,6,"""PSU_TestTrack"""
1722883548750773296,,206,,1722883548,750362634,"""SparkFun GPS GGA""","""GGA""",1722883548.0,800000.0,40.862562866666664,-77.83393761166667,334.819,-34.454,4,12,0.57,0.8,6,"""PSU_TestTrack"""
1722883548856013049,,207,,1722883548,855695724,"""SparkFun GPS GGA""","""GGA""",1722883548.0,900000.0,40.86256817333334,-77.83392844166667,334.822,-34.454,4,12,0.57,0.9,6,"""PSU_TestTrack"""
1722883548968057270,,208,,1722883548,967382192,"""SparkFun GPS GGA""","""GGA""",1722883549.0,0.0,40.86257341333334,-77.83391944666667,334.825,-34.454,4,12,0.57,1.0,6,"""PSU_TestTrack"""
1722883549056740701,,209,,1722883549,56121349,"""SparkFun GPS GGA""","""GGA""",1722883549.0,100000.0,40.86257858,-77.83391060833333,334.827,-34.454,4,12,0.57,1.1,6,"""PSU_TestTrack"""
1722883549161517373,,210,,1722883549,161056280,"""SparkFun GPS GGA""","""GGA""",1722883549.0,200000.0,40.86258365333333,-77.833901955,334.834,-34.454,4,12,0.57,1.2,6,"""PSU_TestTrack"""
1722883549257601806,,211,,1722883549,257055997,"""SparkFun GPS GGA""","""GGA""",1722883549.0,300000.0,40.86258862166667,-77.833893475,334.836,-34.454,4,12,0.57,1.3,6,"""PSU_TestTrack"""
1722883549355950595,,212,,1722883549,355502367,"""SparkFun GPS GGA""","""GGA""",1722883549.0,400000.0,40.862593505,-77.83388515333333,334.83,-34.454,4,12,0.57,1.4,6,"""PSU_TestTrack"""
1722883549454913492,,213,,1722883549,454561710,"""SparkFun GPS GGA""","""GGA""",1722883549.0,500000.0,40.86259827166667,-77.83387697833334,334.83,-34.454,4,12,0.57,1.5,6,"""PSU_TestTrack"""
1722883549558405034,,214,,1722883549,557779312,"""SparkFun GPS GGA""","""GGA""",1722883549.0,600000.0,40.86260295833333,-77.83386895,334.828,-34.454,4,12,0.57,1.6,6,"""PSU_TestTrack"""
1722883549659424608,,215,,1722883549,658870697,"""SparkFun GPS GGA""","""GGA""",1722883549.0,700000.0,40.862607595,-77.83386105666666,334.83299999999997,-34.454,4,12,0.57,0.7,6,"""PSU_TestTrack"""
1722883549759742798,,216,,1722883549,759140253,"""SparkFun GPS GGA""","""GGA""",1722883549.0,800000.0,40.86261210166667,-77.833853335,334.837,-34.454,4,12,0.57,0.8,6,"""PSU_TestTrack"""
1722883549859304744,,217,,1722883549,858945131,"""SparkFun GPS GGA""","""GGA""",1722883549.0,900000.0,40.862616501666665,-77.83384586,334.843,-34.454,4,12,0.57,0.9,6,"""PSU_TestTrack"""
1722883549973330979,,218,,1722883549,972438335,"""SparkFun GPS GGA""","""GGA""",1722883550.0,0.0,40.862620801666665,-77.83383841,334.84,-34.454,4,12,0.57,1.0,6,"""PSU_TestTrack"""
1722883550059546854,,219,,1722883550,59183120,"""SparkFun GPS GGA""","""GGA""",1722883550.0,100000.0,40.86262510666667,-77.83383127166667,334.83299999999997,-34.454,4,12,0.57,1.1,6,"""PSU_TestTrack"""
1722883550170606235,,220,,1722883550,169972181,"""SparkFun GPS GGA""","""GGA""",1722883550.0,200000.0,40.86262905,-77.833824485,334.848,-34.454,4,12,0.57,1.2,6,"""PSU_TestTrack"""
1722883550259919793,,221,,1722883550,259383201,"""SparkFun GPS GGA""","""GGA""",1722883550.0,300000.0,40.86263299,-77.83381770166666,334.86899999999997,-34.454,4,12,0.57,1.3,6,"""PSU_TestTrack"""
1722883550363635372,,222,,1722883550,363215446,"""SparkFun GPS GGA""","""GGA""",1722883550.0,400000.0,40.862636875,-77.83381105,334.87399999999997,-34.454,4,12,0.57,1.4,6,"""PSU_TestTrack"""
1722883550457916731,,223,,1722883550,457408666,"""SparkFun GPS GGA""","""GGA""",1722883550.0,500000.0,40.862640633333335,-77.83380471,334.871,-34.454,4,12,0.57,1.5,6,"""PSU_TestTrack"""
1722883550561660241,,224,,1722883550,560551881,"""SparkFun GPS GGA""","""GGA""",1722883550.0,600000.0,40.86264435166667,-77.83379846666666,334.86899999999997,-34.454,4,12,0.57,1.6,6,"""PSU_TestTrack"""
1722883550656306577,,225,,1722883550,655962228,"""SparkFun GPS GGA""","""GGA""",1722883550.0,700000.0,40.86264806333333,-77.83379231833334,334.868,-34.454,4,12,0.57,0.7,6,"""PSU_TestTrack"""
1722883550757723862,,226,,1722883550,757129669,"""SparkFun GPS GGA""","""GGA""",1722883550.0,800000.0,40.86265172833333,-77.83378663,334.865,-34.454,4,12,0.57,0.8,6,"""PSU_TestTrack"""
1722883550855363548,,227,,1722883550,854985475,"""SparkFun GPS GGA""","""GGA""",1722883550.0,900000.0,40.86265499833333,-77.83378084833333,334.86199999999997,-34.454,4,12,0.57,0.9,6,"""PSU_TestTrack"""
1722883550966442723,,228,,1722883550,965857744,"""SparkFun GPS GGA""","""GGA""",1722883551.0,0.0,40.862658175,-77.833775195,334.875,-34.454,4,12,0.57,1.0,6,"""PSU_TestTrack"""
1722883551064667269,,229,,1722883551,63959598,"""SparkFun GPS GGA""","""GGA""",1722883551.0,100000.0,40.86266126,-77.83376956833334,334.879,-34.454,4,12,0.57,1.1,6,"""PSU_TestTrack"""
1722883551160587751,,230,,1722883551,159650087,"""SparkFun GPS GGA""","""GGA""",1722883551.0,200000.0,40.862664255,-77.83376415833334,334.888,-34.454,4,12,0.57,1.2,6,"""PSU_TestTrack"""
1722883551256410903,,231,,1722883551,255751848,"""SparkFun GPS GGA""","""GGA""",1722883551.0,300000.0,40.862667495,-77.83375911666667,334.878,-34.454,4,12,0.57,1.3,6,"""PSU_TestTrack"""
1722883551366655452,,232,,1722883551,365964174,"""SparkFun GPS GGA""","""GGA""",1722883551.0,400000.0,40.86267068666667,-77.83375418,334.872,-34.454,4,12,0.57,1.4,6,"""PSU_TestTrack"""
1722883551454903042,,233,,1722883551,454091310,"""SparkFun GPS GGA""","""GGA""",1722883551.0,500000.0,40.862673623333336,-77.83374925833333,334.883,-34.454,4,12,0.57,0.5,6,"""PSU_TestTrack"""
1722883551555017971,,234,,1722883551,554731845,"""SparkFun GPS GGA""","""GGA""",1722883551.0,600000.0,40.86267649333333,-77.83374441833334,334.88599999999997,-34.454,4,12,0.57,0.6,6,"""PSU_TestTrack"""
1722883551659592294,,235,,1722883551,658824682,"""SparkFun GPS GGA""","""GGA""",1722883551.0,700000.0,40.86267924166667,-77.83373951833333,334.88,-34.454,4,12,0.57,0.7,6,"""PSU_TestTrack"""
1722883551756033181,,236,,1722883551,755479574,"""SparkFun GPS GGA""","""GGA""",1722883551.0,800000.0,40.86268175666667,-77.83373447,334.88,-34.454,4,12,0.57,0.8,6,"""PSU_TestTrack"""
1722883551854626016,,237,,1722883551,854310989,"""SparkFun GPS GGA""","""GGA""",1722883551.0,900000.0,40.862684505,-77.83372987333334,334.88599999999997,-34.454,4,12,0.57,0.9,6,"""PSU_TestTrack"""
1722883551968047420,,238,,1722883551,967623472,"""SparkFun GPS GGA""","""GGA""",1722883552.0,0.0,40.86268720166667,-77.83372529166667,334.893,-34.454,4,12,0.57,1.0,6,"""PSU_TestTrack"""
1722883552065962751,,239,,1722883552,65338850,"""SparkFun GPS GGA""","""GGA""",1722883552.0,100000.0,40.86268999,-77.83372071166667,334.904,-34.454,4,12,0.57,1.1,6,"""PSU_TestTrack"""
1722883552166447669,,240,,1722883552,165445566,"""SparkFun GPS GGA""","""GGA""",1722883552.0,200000.0,40.86269280166667,-77.83371619833333,334.911,-34.454,4,12,0.57,1.2,6,"""PSU_TestTrack"""
1722883552265149345,,241,,1722883552,264663696,"""SparkFun GPS GGA""","""GGA""",1722883552.0,300000.0,40.862695545,-77.83371170666666,334.905,-34.454,4,12,0.57,1.3,6,"""PSU_TestTrack"""
1722883552350846116,,242,,1722883552,350471735,"""SparkFun GPS GGA""","""GGA""",1722883552.0,400000.0,40.862698243333334,-77.83370724666666,334.896,-34.454,4,12,0.57,0.4,6,"""PSU_TestTrack"""
1722883552454835957,,243,,1722883552,454518079,"""SparkFun GPS GGA""","""GGA""",1722883552.0,500000.0,40.86270078166667,-77.83370272833334,334.895,-34.454,4,12,0.57,0.5,6,"""PSU_TestTrack"""
1722883552557535355,,244,,1722883552,556918859,"""SparkFun GPS GGA""","""GGA""",1722883552.0,600000.0,40.86270323666667,-77.83369806,334.904,-34.454,4,12,0.57,0.6,6,"""PSU_TestTrack"""
1722883552655429038,,245,,1722883552,654989004,"""SparkFun GPS GGA""","""GGA""",1722883552.0,700000.0,40.862705805,-77.833693565,334.92,-34.454,4,12,0.57,0.7,6,"""PSU_TestTrack"""
1722883552762519101,,246,,1722883552,761881351,"""SparkFun GPS GGA""","""GGA""",1722883552.0,800000.0,40.86270840666667,-77.83368911,334.92199999999997,-34.454,4,12,0.57,0.8,6,"""PSU_TestTrack"""
1722883552860107339,,247,,1722883552,859211683,"""SparkFun GPS GGA""","""GGA""",1722883552.0,900000.0,40.862710998333334,-77.83368458666666,334.925,-34.454,4,12,0.57,0.9,6,"""PSU_TestTrack"""
1722883552964779048,,248,,1722883552,964373350,"""SparkFun GPS GGA""","""GGA""",1722883553.0,0.0,40.86271351,-77.83368004166667,334.924,-34.454,4,12,0.57,1.0,6,"""PSU_TestTrack"""
1722883553055983667,,249,,1722883553,55663108,"""SparkFun GPS GGA""","""GGA""",1722883553.0,100000.0,40.862716111666664,-77.83367560166667,334.924,-34.454,4,12,0.57,1.1,6,"""PSU_TestTrack"""
1722883553162013692,,250,,1722883553,161616325,"""SparkFun GPS GGA""","""GGA""",1722883553.0,200000.0,40.86271879833333,-77.833671085,334.924,-34.454,4,12,0.57,1.2,6,"""PSU_TestTrack"""
1722883553254072880,,251,,1722883553,253571271,"""SparkFun GPS GGA""","""GGA""",1722883553.0,300000.0,40.86272142166667,-77.83366659,334.92699999999996,-34.454,4,12,0.57,0.3,6,"""PSU_TestTrack"""
1722883553361296653,,252,,1722883553,360473394,"""SparkFun GPS GGA""","""GGA""",1722883553.0,400000.0,40.862724201666666,-77.83366209,334.929,-34.454,4,12,0.57,0.4,6,"""PSU_TestTrack"""
1722883553459331795,,253,,1722883553,458878755,"""SparkFun GPS GGA""","""GGA""",1722883553.0,500000.0,40.86272696333333,-77.83365770166667,334.923,-34.454,4,12,0.57,0.5,6,"""PSU_TestTrack"""
1722883553557995309,,254,,1722883553,557199954,"""SparkFun GPS GGA""","""GGA""",1722883553.0,600000.0,40.86272952833333,-77.83365310833334,334.917,-34.454,4,12,0.57,0.6,6,"""PSU_TestTrack"""
1722883553656118552,,255,,1722883553,655735015,"""SparkFun GPS GGA""","""GGA""",1722883553.0,700000.0,40.862732045,-77.83364828,334.917,-34.454,4,12,0.57,0.7,6,"""PSU_TestTrack"""
1722883553763423526,,256,,1722883553,762760877,"""SparkFun GPS GGA""","""GGA""",1722883553.0,800000.0,40.86273455,-77.83364358,334.929,-34.454,4,12,0.57,0.8,6,"""PSU_TestTrack"""
1722883553855841775,,257,,1722883553,855340957,"""SparkFun GPS GGA""","""GGA""",1722883553.0,900000.0,40.862737265,-77.83363898166667,334.94599999999997,-34.454,4,12,0.57,0.9,6,"""PSU_TestTrack"""
1722883553973394213,,258,,1722883553,972833871,"""SparkFun GPS GGA""","""GGA""",1722883554.0,0.0,40.862739946666665,-77.83363424333334,334.948,-34.454,4,12,0.57,1.0,6,"""PSU_TestTrack"""
1722883554057126724,,259,,1722883554,56549549,"""SparkFun GPS GGA""","""GGA""",1722883554.0,100000.0,40.862742865,-77.83362973833333,334.932,-34.454,4,12,0.57,1.1,6,"""PSU_TestTrack"""
1722883554157808583,,260,,1722883554,157261848,"""SparkFun GPS GGA""","""GGA""",1722883554.0,200000.0,40.86274586,-77.83362521166667,334.919,-34.454,4,12,0.57,0.2,6,"""PSU_TestTrack"""
1722883554259930484,,261,,1722883554,258999824,"""SparkFun GPS GGA""","""GGA""",1722883554.0,300000.0,40.86274846,-77.8336205,334.925,-34.454,4,12,0.57,0.3,6,"""PSU_TestTrack"""
1722883554357876943,,262,,1722883554,357516765,"""SparkFun GPS GGA""","""GGA""",1722883554.0,400000.0,40.86275114,-77.83361565166666,334.937,-34.454,4,12,0.57,0.4,6,"""PSU_TestTrack"""
1722883554456497556,,263,,1722883554,456174850,"""SparkFun GPS GGA""","""GGA""",1722883554.0,500000.0,40.86275386,-77.83361067666667,334.94599999999997,-34.454,4,12,0.57,0.5,6,"""PSU_TestTrack"""
1722883554562415315,,264,,1722883554,561380624,"""SparkFun GPS GGA""","""GGA""",1722883554.0,600000.0,40.86275655833333,-77.83360561833334,334.952,-34.454,4,12,0.57,0.6,6,"""PSU_TestTrack"""
1722883554657348449,,265,,1722883554,656896591,"""SparkFun GPS GGA""","""GGA""",1722883554.0,700000.0,40.86275948,-77.83360101333334,334.948,-34.454,4,12,0.57,0.7,6,"""PSU_TestTrack"""
1722883554758712063,,266,,1722883554,758163213,"""SparkFun GPS GGA""","""GGA""",1722883554.0,800000.0,40.862762311666664,-77.83359635333333,334.95099999999996,-34.454,4,12,0.57,0.8,6,"""PSU_TestTrack"""
1722883554857752127,,267,,1722883554,857185363,"""SparkFun GPS GGA""","""GGA""",1722883554.0,900000.0,40.862765286666665,-77.83359154333333,334.954,-34.454,4,12,0.57,0.9,6,"""PSU_TestTrack"""
1722883554969953691,,268,,1722883554,968768596,"""SparkFun GPS GGA""","""GGA""",1722883555.0,0.0,40.86276818333333,-77.83358650333334,334.95799999999997,-34.454,4,12,0.57,1.0,6,"""PSU_TestTrack"""
1722883555050564863,,269,,1722883555,50125598,"""SparkFun GPS GGA""","""GGA""",1722883555.0,100000.0,40.86277108833333,-77.83358142833333,334.962,-34.454,4,12,0.57,1.1,6,"""PSU_TestTrack"""
1722883555157741313,,270,,1722883555,157157182,"""SparkFun GPS GGA""","""GGA""",1722883555.0,200000.0,40.862773866666664,-77.8335764,334.957,-34.454,4,12,0.57,1.2,6,"""PSU_TestTrack"""
1722883555259821401,,271,,1722883555,259116649,"""SparkFun GPS GGA""","""GGA""",1722883555.0,300000.0,40.862776886666666,-77.833571405,334.95799999999997,-34.454,4,12,0.57,1.3,6,"""PSU_TestTrack"""
1722883555363761941,,272,,1722883555,362524986,"""SparkFun GPS GGA""","""GGA""",1722883555.0,400000.0,40.862779931666665,-77.83356626333334,334.96,-34.454,4,12,0.57,1.4,6,"""PSU_TestTrack"""
1722883555466125084,,273,,1722883555,465786457,"""SparkFun GPS GGA""","""GGA""",1722883555.0,500000.0,40.86278301833333,-77.833561165,334.96999999999997,-34.454,4,12,0.57,1.5,6,"""PSU_TestTrack"""
1722883555557859615,,274,,1722883555,557308435,"""SparkFun GPS GGA""","""GGA""",1722883555.0,600000.0,40.862786025,-77.83355599,334.966,-34.454,4,12,0.57,0.6,6,"""PSU_TestTrack"""
1722883555656049242,,275,,1722883555,655731201,"""SparkFun GPS GGA""","""GGA""",1722883555.0,700000.0,40.86278898333333,-77.833550765,334.964,-34.454,4,12,0.57,0.7,6,"""PSU_TestTrack"""
1722883555754406655,,276,,1722883555,753994941,"""SparkFun GPS GGA""","""GGA""",1722883555.0,800000.0,40.86279201666667,-77.83354544833334,334.965,-34.454,4,12,0.57,0.8,6,"""PSU_TestTrack"""
1722883555857485862,,277,,1722883555,857140302,"""SparkFun GPS GGA""","""GGA""",1722883555.0,900000.0,40.86279506333333,-77.83354013,334.96299999999997,-34.454,4,12,0.57,0.9,6,"""PSU_TestTrack"""
1722883555963014519,,278,,1722883555,962317466,"""SparkFun GPS GGA""","""GGA""",1722883556.0,0.0,40.86279816166667,-77.83353473333334,334.965,-34.454,4,12,0.57,1.0,6,"""PSU_TestTrack"""
1722883556058839472,,279,,1722883556,58413028,"""SparkFun GPS GGA""","""GGA""",1722883556.0,100000.0,40.86280128333333,-77.83352936,334.972,-34.454,4,12,0.57,1.1,6,"""PSU_TestTrack"""
1722883556163064922,,280,,1722883556,162554740,"""SparkFun GPS GGA""","""GGA""",1722883556.0,200000.0,40.862804436666664,-77.83352391333334,334.979,-34.454,4,12,0.57,1.2,6,"""PSU_TestTrack"""
1722883556260046807,,281,,1722883556,259659528,"""SparkFun GPS GGA""","""GGA""",1722883556.0,300000.0,40.86280763,-77.833518395,334.979,-34.454,4,12,0.57,1.3,6,"""PSU_TestTrack"""
1722883556356639720,,282,,1722883556,356240034,"""SparkFun GPS GGA""","""GGA""",1722883556.0,400000.0,40.862810831666664,-77.83351287666666,334.977,-34.454,4,12,0.57,1.4,6,"""PSU_TestTrack"""
1722883556456781081,,283,,1722883556,456420660,"""SparkFun GPS GGA""","""GGA""",1722883556.0,500000.0,40.86281406166667,-77.83350723333334,334.984,-34.454,4,12,0.57,1.5,6,"""PSU_TestTrack"""
1722883556558307544,,284,,1722883556,557701349,"""SparkFun GPS GGA""","""GGA""",1722883556.0,600000.0,40.86281730333333,-77.83350160833334,334.985,-34.454,4,12,0.57,1.6,6,"""PSU_TestTrack"""
1722883556661869318,,285,,1722883556,661396741,"""SparkFun GPS GGA""","""GGA""",1722883556.0,700000.0,40.86282061166666,-77.83349586333334,334.98699999999997,-34.454,4,12,0.57,1.7,6,"""PSU_TestTrack"""
1722883556758040424,,286,,1722883556,757503032,"""SparkFun GPS GGA""","""GGA""",1722883556.0,800000.0,40.862823945,-77.83349005833334,334.989,-34.454,4,12,0.57,0.8,6,"""PSU_TestTrack"""
1722883556850165462,,287,,1722883556,849707365,"""SparkFun GPS GGA""","""GGA""",1722883556.0,900000.0,40.86282734,-77.83348417,334.992,-34.454,4,12,0.57,0.9,6,"""PSU_TestTrack"""
1722883556967650561,,288,,1722883556,967052459,"""SparkFun GPS GGA""","""GGA""",1722883557.0,0.0,40.86283078666666,-77.83347817833334,334.995,-34.454,4,12,0.57,1.0,6,"""PSU_TestTrack"""
1722883557062256041,,289,,1722883557,61909437,"""SparkFun GPS GGA""","""GGA""",1722883557.0,100000.0,40.862834281666665,-77.83347206333333,334.992,-34.454,4,12,0.57,1.1,6,"""PSU_TestTrack"""
1722883557158201871,,290,,1722883557,157559394,"""SparkFun GPS GGA""","""GGA""",1722883557.0,200000.0,40.86283785,-77.83346594333334,335.003,-34.454,4,12,0.57,1.2,6,"""PSU_TestTrack"""
1722883557256486960,,291,,1722883557,256164312,"""SparkFun GPS GGA""","""GGA""",1722883557.0,300000.0,40.862841538333335,-77.83345973,335.01099999999997,-34.454,4,12,0.57,0.3,6,"""PSU_TestTrack"""
1722883557357973066,,292,,1722883557,357428073,"""SparkFun GPS GGA""","""GGA""",1722883557.0,400000.0,40.862845201666666,-77.83345333666666,335.008,-34.454,4,12,0.57,0.4,6,"""PSU_TestTrack"""
1722883557457311667,,293,,1722883557,456799268,"""SparkFun GPS GGA""","""GGA""",1722883557.0,500000.0,40.862848938333336,-77.83344690333334,335.013,-34.454,4,12,0.57,0.5,6,"""PSU_TestTrack"""
1722883557557310595,,294,,1722883557,556669235,"""SparkFun GPS GGA""","""GGA""",1722883557.0,600000.0,40.862852753333335,-77.83344037833334,335.016,-34.454,4,12,0.57,0.6,6,"""PSU_TestTrack"""
1722883557657629538,,295,,1722883557,657195568,"""SparkFun GPS GGA""","""GGA""",1722883557.0,700000.0,40.862856595,-77.83343375666666,335.015,-34.454,4,12,0.57,0.7,6,"""PSU_TestTrack"""
1722883557749471962,,296,,1722883557,748946428,"""SparkFun GPS GGA""","""GGA""",1722883557.0,800000.0,40.862860473333335,-77.83342705166666,335.014,-34.454,4,12,0.57,0.8,6,"""PSU_TestTrack"""
1722883557854640772,,297,,1722883557,854173898,"""SparkFun GPS GGA""","""GGA""",1722883557.0,900000.0,40.86286439,-77.83342029333333,335.013,-34.454,4,12,0.57,0.9,6,"""PSU_TestTrack"""
1722883557965425637,,298,,1722883557,964678049,"""SparkFun GPS GGA""","""GGA""",1722883558.0,0.0,40.862868426666665,-77.83341343166667,335.015,-34.454,4,12,0.57,1.0,6,"""PSU_TestTrack"""
1722883558057743744,,299,,1722883558,57346582,"""SparkFun GPS GGA""","""GGA""",1722883558.0,100000.0,40.862872485,-77.83340654333334,335.02,-34.454,4,12,0.57,1.1,6,"""PSU_TestTrack"""
1722883558162757491,,300,,1722883558,162173748,"""SparkFun GPS GGA""","""GGA""",1722883558.0,200000.0,40.862876585,-77.83339953333333,335.019,-34.454,4,12,0.57,1.2,6,"""PSU_TestTrack"""
1722883558257303422,,301,,1722883558,256885290,"""SparkFun GPS GGA""","""GGA""",1722883558.0,300000.0,40.862880765,-77.83339250666667,335.024,-34.454,4,12,0.57,0.3,6,"""PSU_TestTrack"""
1722883558359142336,,302,,1722883558,358148097,"""SparkFun GPS GGA""","""GGA""",1722883558.0,400000.0,40.86288492833334,-77.83338536166667,335.022,-34.454,4,12,0.57,0.4,6,"""PSU_TestTrack"""
1722883558456659379,,303,,1722883558,456094026,"""SparkFun GPS GGA""","""GGA""",1722883558.0,500000.0,40.862889161666665,-77.83337814833334,335.02299999999997,-34.454,4,12,0.57,0.5,6,"""PSU_TestTrack"""
1722883558557270432,,304,,1722883558,556866645,"""SparkFun GPS GGA""","""GGA""",1722883558.0,600000.0,40.86289344833333,-77.833370825,335.027,-34.454,4,12,0.57,0.6,6,"""PSU_TestTrack"""
1722883558649678259,,305,,1722883558,649290561,"""SparkFun GPS GGA""","""GGA""",1722883558.0,700000.0,40.86289778,-77.83336346666667,335.034,-34.454,4,12,0.57,0.7,6,"""PSU_TestTrack"""
1722883558760996215,,306,,1722883558,760000705,"""SparkFun GPS GGA""","""GGA""",1722883558.0,800000.0,40.862902135,-77.83335596833334,335.039,-34.454,4,12,0.57,0.8,6,"""PSU_TestTrack"""
1722883558855865954,,307,,1722883558,855470418,"""SparkFun GPS GGA""","""GGA""",1722883558.0,900000.0,40.862906583333334,-77.83334840666667,335.032,-34.454,4,12,0.57,0.9,6,"""PSU_TestTrack"""
1722883558961619645,,308,,1722883558,961199045,"""SparkFun GPS GGA""","""GGA""",1722883559.0,0.0,40.86291103333333,-77.83334067,335.031,-34.454,4,12,0.57,1.0,6,"""PSU_TestTrack"""
1722883559054776093,,309,,1722883559,54229497,"""SparkFun GPS GGA""","""GGA""",1722883559.0,100000.0,40.862915578333336,-77.83333286833333,335.029,-34.454,4,12,0.57,1.1,6,"""PSU_TestTrack"""
1722883559155745793,,310,,1722883559,155212640,"""SparkFun GPS GGA""","""GGA""",1722883559.0,200000.0,40.862920145,-77.833324995,335.016,-34.454,4,12,0.57,1.2,6,"""PSU_TestTrack"""
1722883559256152065,,311,,1722883559,255651473,"""SparkFun GPS GGA""","""GGA""",1722883559.0,300000.0,40.862924686666666,-77.83331728666667,335.027,-34.454,4,12,0.57,1.3,6,"""PSU_TestTrack"""
1722883559352850403,,312,,1722883559,352224111,"""SparkFun GPS GGA""","""GGA""",1722883559.0,400000.0,40.86292915666667,-77.83330945,335.04,-34.454,4,12,0.57,0.4,6,"""PSU_TestTrack"""
1722883559452367347,,313,,1722883559,451930046,"""SparkFun GPS GGA""","""GGA""",1722883559.0,500000.0,40.86293374,-77.83330159833334,335.053,-34.454,4,12,0.57,0.5,6,"""PSU_TestTrack"""
1722883559551167752,,314,,1722883559,550632476,"""SparkFun GPS GGA""","""GGA""",1722883559.0,600000.0,40.862938451666665,-77.833293595,335.04699999999997,-34.454,4,12,0.57,0.6,6,"""PSU_TestTrack"""
